item,title,description,img_url,product_url,latitude,longitude,price,delivery,dates,extended_attributes,seller_names
m2222121999,Analoog fototoestel Praktica MTL3 inclusief 2 extra lenzen,Analoog fototoestel praktica mtl3 inclusief 2 extra lenzen,https://images.marktplaats.com/api/v1/listing-mp-p/images/12/125c8a68-dd4b-488f-b243-2c15a498ff9c?rule=ecg_mp_eps$_82.jpg,https://link.marktplaats.nl/m2222121999,51.7007667115,5.9350581930532,0.0,Ophalen of Verzenden,Vandaag,Ophalen of Verzenden,KP56
m2222129853,3 Minolta lenzen voor fotocamera lens,"3 lenzen aangeboden, merk minolta. Details: - minolta af zoom 0.5M/1.6Ft af 35-70mm 1:35 (22) - 4.5 49Mm 53501836 japan  - minolta",https://images.marktplaats.com/api/v1/listing-mp-p/images/1d/1d6f6da6-df61-4ef8-b2ce-22effe20c8e4?rule=ecg_mp_eps$_82.jpg,https://link.marktplaats.nl/m2222129853,50.851744657514,5.702301102199,0.0,Ophalen of Verzenden,Vandaag,Ophalen of Verzenden,Mike Moonen
m2222119394,Minolta Dynax 800Si met lenzen zoom 35-80 mm en af  70-210mm,Met tas en zonnekap en grip bescherm doppen. Werkt naar behoren. Bekijk ook mijn andere advertenties voor meer camera’s en lenzen.,https://images.marktplaats.com/api/v1/listing-mp-p/images/6f/6fb5722d-699e-4b7e-a1b6-ca843f51676e?rule=ecg_mp_eps$_82.jpg,https://link.marktplaats.nl/m2222119394,52.134909633332,4.4701445787714,0.0,Ophalen of Verzenden,Vandaag,Ophalen of Verzenden,Anthony
m2222137420,Mooie Canon EOS 600D met 3 lenzen plus belichting.,Heel weinig gebruikt deze canon eos 600d camera met 3 lenzen plus belichting in een passende tas ik doe dit setje weg omdat ik er ,https://images.marktplaats.com/api/v1/listing-mp-p/images/d5/d5279275-c525-4df9-962e-67c07e5df5b6?rule=ecg_mp_eps$_82.jpg,https://link.marktplaats.nl/m2222137420,52.365078175311,5.1994771215121,0.0,Ophalen,Vandaag,Ophalen,michael
m2222118909,Partij diverse vintage cameras en lenzen,"Aangeboden mooie diverse partij van verschillende merken en type cameras en lenzen. Minolta, konica olympus etc",https://images.marktplaats.com/api/v1/listing-mp-p/images/f5/f544fa50-5f1d-40b8-99d3-dbd5c34f98a9?rule=ecg_mp_eps$_82.jpg,https://link.marktplaats.nl/m2222118909,53.023332604249,6.5657439263677,0.0,Ophalen of Verzenden,Vandaag,Tweedehands,Theo
m2222116270,Pentax SuperA,In prima staat. Mooie kwaliteit. Bieden,https://images.marktplaats.com/api/v1/listing-mp-p/images/c9/c9574b36-cf72-4b8f-93ba-4da788889e74?rule=ecg_mp_eps$_82.jpg,https://link.marktplaats.nl/m2222116270,52.77085620771,6.8918456184987,0.0,Ophalen of Verzenden,Vandaag,Ophalen of Verzenden,E.Drent
m2222128841,Pentax ME F vintage SLR camera 35 mm body,In goede en werkt naar behoren. Ik heb ook een lens eventueel. Bekijk ook mijn andere advertenties voor meer camera’s en lenzen.,https://images.marktplaats.com/api/v1/listing-mp-p/images/28/285aad16-aa46-441e-b949-05809494f352?rule=ecg_mp_eps$_82.jpg,https://link.marktplaats.nl/m2222128841,52.134909633332,4.4701445787714,0.0,Ophalen of Verzenden,Vandaag,Ophalen of Verzenden,Anthony
m2222134334,"Extension tube set (voor Pentax, Praktika en meer)","Nooit gebruikt, wel tweedehands aangeschaft natuurlijk.",https://images.marktplaats.com/api/v1/listing-mp-p/images/41/417b983d-b729-4887-95b8-b0acfb817ef3?rule=ecg_mp_eps$_82.jpg,https://link.marktplaats.nl/m2222134334,51.909922318513,4.4514503479162,10.0,Ophalen of Verzenden,Vandaag,Ophalen of Verzenden,Maaike F
m2222137420,Mooie Canon EOS 600D met 3 lenzen plus belichting.,Heel weinig gebruikt deze canon eos 600d camera met 3 lenzen plus belichting in een passende tas ik doe dit setje weg omdat ik er ,https://images.marktplaats.com/api/v1/listing-mp-p/images/d5/d5279275-c525-4df9-962e-67c07e5df5b6?rule=ecg_mp_eps$_82.jpg,https://link.marktplaats.nl/m2222137420,52.365078175311,5.1994771215121,0.0,Ophalen,Vandaag,Ophalen,michael
m2222122221,Canon EOS 500,Body eos 500. Mooie camera. Voor de verzemlaar,https://images.marktplaats.com/api/v1/listing-mp-p/images/1b/1bfb8cbf-9860-4a71-8599-7cd158293fb8?rule=ecg_mp_eps$_82.jpg,https://link.marktplaats.nl/m2222122221,52.199693710861,4.8938625792013,0.0,Ophalen,Vandaag,Ophalen,D van Kootwijk
m2222139926,Canon Prima BF TWIN,Fotocamera canon prima bf twin camera in goede conditie.,https://images.marktplaats.com/api/v1/listing-mp-p/images/94/948a01c2-c84e-472c-8abc-5a0a5af12017?rule=ecg_mp_eps$_82.jpg,https://link.marktplaats.nl/m2222139926,51.730529119397,5.2921222192692,25.0,Ophalen of Verzenden,Vandaag,Ophalen of Verzenden,Rob
m2222148332,Miranda Sensorex II,Prachtige vintage miranda sensorex ii met originele hoes en boekje. 50 Mm originele lems en 135 lens + zonnekap. Alles origineel,https://images.marktplaats.com/api/v1/listing-mp-p/images/84/84c6c23b-1ac6-40bb-b05e-1c216c3c8548?rule=ecg_mp_eps$_82.jpg,https://link.marktplaats.nl/m2222148332,52.199693710861,4.8938625792013,0.0,Ophalen,Vandaag,Ophalen,D van Kootwijk
m2222104674,Canon AE-1 met lenzen,Canon ae-1 analoog lenzen: vivitar 70-150 mm 1:3.8 52 Mm tokina 28 mm 1:2.8 52 Mm filters: skylight 52mm uv filter 52 mm incl foto,https://images.marktplaats.com/api/v1/listing-mp-p/images/89/892da1f7-78dc-4784-abe9-93d6aaf74854?rule=ecg_mp_eps$_82.jpg,https://link.marktplaats.nl/m2222104674,53.18508799705,5.7813349962873,0.0,Ophalen,Vandaag,Ophalen,Project
m2222107471,Diverse cameras/lenzen voor reparatie/onderdelen,"Divers, zie foto's.",https://images.marktplaats.com/api/v1/listing-mp-p/images/a0/a051dfdd-4fcb-4684-9809-e298f5d9e3ca?rule=ecg_mp_eps$_82.jpg,https://link.marktplaats.nl/m2222107471,52.561066633521,5.904826773566,0.0,Ophalen of Verzenden,Vandaag,Ophalen of Verzenden,Henk
m2222105276,"Asahi Pentax, analoge camera,Takumar lenzen, volledige, set","Volledige set fotocamera asahi pentax, takumar lenzen, lederen draagtassen. Alleen verkoop volledige set, geen separate onderdelen",https://images.marktplaats.com/api/v1/listing-mp-p/images/7e/7e9bceb4-5e54-47e9-8548-2d4ab55814cb?rule=ecg_mp_eps$_82.jpg,https://link.marktplaats.nl/m2222105276,52.353584270872,6.3211467523678,245.0,Ophalen of Verzenden,Vandaag,Ophalen of Verzenden,Brigit
m2222105276,"Asahi Pentax, analoge camera,Takumar lenzen, volledige, set","Volledige set fotocamera asahi pentax, takumar lenzen, lederen draagtassen. Alleen verkoop volledige set, geen separate onderdelen",https://images.marktplaats.com/api/v1/listing-mp-p/images/7e/7e9bceb4-5e54-47e9-8548-2d4ab55814cb?rule=ecg_mp_eps$_82.jpg,https://link.marktplaats.nl/m2222105276,52.353584270872,6.3211467523678,245.0,Ophalen of Verzenden,Vandaag,Ophalen of Verzenden,Brigit
m2222105276,"Asahi Pentax, analoge camera,Takumar lenzen, volledige set","Volledige set fotocamera asahi pentax, takumar lenzen, lederen draagtassen. Vintage. Alleen verkoop volledige set, geen separate o",https://images.marktplaats.com/api/v1/listing-mp-p/images/7e/7e9bceb4-5e54-47e9-8548-2d4ab55814cb?rule=ecg_mp_eps$_82.jpg,https://link.marktplaats.nl/m2222105276,52.353584270872,6.3211467523678,245.0,Ophalen of Verzenden,Vandaag,Ophalen of Verzenden,Brigit
m2222109163,Fotocamera  Nikon F-401x,Achterklep en batterij klep sluiten niet en lensrand beetje schade ( zie foto 3). Mooie spiegelreflex camera. Bieden maar!!,https://images.marktplaats.com/api/v1/listing-mp-p/images/ac/acd877fe-023a-4426-83d9-7a6ac2f19265?rule=ecg_mp_eps$_82.jpg,https://link.marktplaats.nl/m2222109163,52.77085620771,6.8918456184987,0.0,Ophalen of Verzenden,Vandaag,Ophalen of Verzenden,E.Drent
m2222096432,Nikon F met eye level finder,"Nikon f met eye level finder. Werkt zoals hoort,transport loopt ook soepel. 1Sec loopt misschien iets te snel, maar lijkt me geen ",https://images.marktplaats.com/api/v1/listing-mp-p/images/7e/7e10e68d-aa72-465d-8bb1-32fc037e10fb?rule=ecg_mp_eps$_82.jpg,https://link.marktplaats.nl/m2222096432,53.401518730648,6.6122895286791,0.0,Ophalen,Vandaag,Ophalen,Jaap
m2222093711,nikon fg vintage spiegelreflex camera + tele nikkor-c,"Uit nalatenschap vader, weinig verstand van, maar heb hem getest met nieuwe batterijen en hij lijkt prima te werken. Kan even gete",https://images.marktplaats.com/api/v1/listing-mp-p/images/46/468eac57-304d-488e-a6c8-8a789c932d73?rule=ecg_mp_eps$_82.jpg,https://link.marktplaats.nl/m2222093711,52.62170206993,4.7342552137753,175.0,Ophalen,Vandaag,Ophalen,marktplaats
m2222102320,Canon T70,"Te koop: analoge camera canon t70. Lenzen: standaard 35-70 mm 1:3,5-4,5 tele lens: 70-150 mm 1:4.5 Lens 50 mm 1:1,8 tevens een fli",https://images.marktplaats.com/api/v1/listing-mp-p/images/24/2494a379-24cb-4614-9395-14c2ef2c0671?rule=ecg_mp_eps$_82.jpg,https://link.marktplaats.nl/m2222102320,50.902341107907,6.0446138558798,135.0,Ophalen of Verzenden,Vandaag,Ophalen of Verzenden,Hans Erkens
m2222104674,Canon AE-1 met lenzen,Canon ae-1 analoog lenzen: vivitar 70-150 mm 1:3.8 52 Mm tokina 28 mm 1:2.8 52 Mm filters: skylight 52mm uv filter 52 mm incl foto,https://images.marktplaats.com/api/v1/listing-mp-p/images/89/892da1f7-78dc-4784-abe9-93d6aaf74854?rule=ecg_mp_eps$_82.jpg,https://link.marktplaats.nl/m2222104674,53.18508799705,5.7813349962873,0.0,Ophalen,Vandaag,Ophalen,Project
m2222081679,Canon Ultrasonic ef 70-200mm 1.4 Zoomlens || Nu €199.99!!,Te koop aangeboden bij used products gouda: canon ultrasonic ef 70-200mm 1.4 Zoomlens inclusief: hoesje specificaties: 70-200mm 70,https://images.marktplaats.com/api/v1/listing-mp-p/images/e9/e99cafb2-1611-43c5-95f8-7745fcbfed58?rule=ecg_mp_eps$_82.jpg,https://link.marktplaats.nl/m2222081679,52.012141267685,4.7142152853313,199.99,Ophalen of Verzenden,Vandaag,Ophalen of Verzenden,Used Products Gouda
m2222105276,"Asahi Pentax, analoge camera,Takumar lenzen, volledige set","Volledige set fotocamera asahi pentax, takumar lenzen, lederen draagtassen. Vintage. Alleen verkoop volledige set, geen separate o",https://images.marktplaats.com/api/v1/listing-mp-p/images/7e/7e9bceb4-5e54-47e9-8548-2d4ab55814cb?rule=ecg_mp_eps$_82.jpg,https://link.marktplaats.nl/m2222105276,52.353584270872,6.3211467523678,245.0,Ophalen of Verzenden,Vandaag,Ophalen of Verzenden,Brigit
m2222105918,Nikkormat FT2,Goedwerkende nikkormat ft2 deukje in spiegelghuis. Heeft nergens effect op. Bieden alleen via marktplaats,https://images.marktplaats.com/api/v1/listing-mp-p/images/ad/ad8bef09-43a2-4487-8e62-77ef5d7c6db9?rule=ecg_mp_eps$_82.jpg,https://link.marktplaats.nl/m2222105918,52.102158165168,5.2389885961611,0.0,Ophalen,Vandaag,Ophalen,Mireille
m2222032051,Pentax MZ10 set analoog spiegelreflexcamera,"Zeer weinig gebruikt, een complete set inc. 80-200Mm zoom lens en dedicated flitser. Elektronische draad ontspanner voor tijd opna",https://images.marktplaats.com/api/v1/listing-mp-p/images/6a/6a4f9ac2-01d9-4210-9ca1-b3869f909a5e?rule=ecg_mp_eps$_82.jpg,https://link.marktplaats.nl/m2222032051,52.511856119834,4.6655907749703,75.0,Ophalen of Verzenden,Vandaag,Ophalen of Verzenden,Menno
m2222025624,Pentax zoom + revue 450 ef,Komen zo uit een verzameling niet getest en worden zonder garantie verkocht,https://images.marktplaats.com/api/v1/listing-mp-p/images/c9/c9a776ff-d634-4560-bb63-acc695b0ceb0?rule=ecg_mp_eps$_82.jpg,https://link.marktplaats.nl/m2222025624,51.465000060116,5.7085235608315,0.0,Ophalen of Verzenden,Vandaag,Ophalen of Verzenden,frank
m2221984344,Makinon 80-200 zoomlens Pentax K analoog,Makinon 80-200 zoomlens voor pentax k bayonet lichtsterkte f: 4.5 Filtermaat 55 mm in nieuwstaat,https://images.marktplaats.com/api/v1/listing-mp-p/images/c2/c20b66d7-bc23-4f1f-8dbf-3efcb0b4b906?rule=ecg_mp_eps$_82.jpg,https://link.marktplaats.nl/m2221984344,52.351370384819,4.8999497011233,10.0,Verzenden,Vandaag,Verzenden,Boudewijn
m2222050754,Pentax Espio AF Zoom analoge kleinbeeld compactcamera,Een prima werkende analoge compactcamera: pentax espio af zoom. Werkt met normale kleinbeeld films. Lekker licht en compact en met,https://images.marktplaats.com/api/v1/listing-mp-p/images/8d/8dd29a9f-d93f-4da5-b0c5-40364850d298?rule=ecg_mp_eps$_82.jpg,https://link.marktplaats.nl/m2222050754,52.549510329202,4.6729046836435,19.0,Ophalen of Verzenden,Vandaag,Gebruikt,Camera For Sale
m2222041549,Kijk en bieden Nikon,Samen koop leuk als je er nog iets mee hebt,https://images.marktplaats.com/api/v1/listing-mp-p/images/39/39dfac6a-1a93-4914-a50b-6b810d3f92f3?rule=ecg_mp_eps$_82.jpg,https://link.marktplaats.nl/m2222041549,52.433642062969,4.839902336531,0.0,Ophalen,Vandaag,Ophalen,Kevin Nugter
m2222049311,"Canon, Minolta,Praktica, Revueflex",Bod gevraagd analoge spiegelreflexcamera's werkend,https://images.marktplaats.com/api/v1/listing-mp-p/images/46/46e00f76-da92-4908-8294-4ed03e533490?rule=ecg_mp_eps$_82.jpg,https://link.marktplaats.nl/m2222049311,52.511856119834,4.6655907749703,0.0,Ophalen of Verzenden,Vandaag,Ophalen of Verzenden,Menno
m2222048407,Canon AE1 body zwart lak IGST,In goede werkende staat verkerende canon ae1 in relatief zeldzame zwarte lak uitvoering. Naar schatting is maar tussen de 5 en 10%,https://images.marktplaats.com/api/v1/listing-mp-p/images/8d/8dd69b59-2ac3-42ff-b5b6-a82a91d91a76?rule=ecg_mp_eps$_82.jpg,https://link.marktplaats.nl/m2222048407,52.064356317076,5.1965169139681,100.0,Verzenden,Vandaag,Verzenden,Maurice
m2222035171,Canon AV-1 body IGST,"In zeer goede staat verkerende canon a1 body. Camera functioneert zoals het hoort; (dus geen ""squeek""!) Filmtansport, li",https://images.marktplaats.com/api/v1/listing-mp-p/images/27/270ecb8c-bcfa-4342-8977-ef2334a9ea4a?rule=ecg_mp_eps$_82.jpg,https://link.marktplaats.nl/m2222035171,52.064356317076,5.1965169139681,50.0,Verzenden,Vandaag,Verzenden,Maurice
m2222039232,Photo sniper Zenit bieden alles zit er volgens mij bij,Ik verkoop dit omdat ik het niet gebruik,https://images.marktplaats.com/api/v1/listing-mp-p/images/73/731a7a72-a3b6-435a-9c38-6d6c63a2c1f7?rule=ecg_mp_eps$_82.jpg,https://link.marktplaats.nl/m2222039232,52.433642062969,4.839902336531,0.0,Ophalen,Vandaag,Ophalen,Kevin Nugter
m2221955438,Camera Nikon  F-601 met Flitser en cameratas erbij,Compleet met flitser en camera tas. Met lens van nikon af nikkor 28mm 1:2.8 Let op!klepje achter sluit niet niet meer en er zit ge,https://images.marktplaats.com/api/v1/listing-mp-p/images/b5/b519317e-4eec-4496-87c5-fb2ced2f20bb?rule=ecg_mp_eps$_82.jpg,https://link.marktplaats.nl/m2221955438,52.382564898239,4.8887086850155,125.0,Ophalen,Vandaag,Ophalen,Michael
m2221946543,"Verzameling foto camera’s, Canon, Zeiss, Minolta, Olympus","Selectie van camera's te koop. Alles in één keer aangeboden. Ze werken allemaal, in ieder geval de sluiter. De batterij van de",https://images.marktplaats.com/api/v1/listing-mp-p/images/d3/d3742439-816a-428f-8431-e22d5015c7b2?rule=ecg_mp_eps$_82.jpg,https://link.marktplaats.nl/m2221946543,52.378391077718,4.6619231440201,150.0,Verzenden,Vandaag,Verzenden,Alesander
m2221913742,Canon AE-1 met 50mm en 75-205mm lens,Canon ae-1 met 50mm en 75-205 lens het toestel verkeerd in redelijke staat. Ik heb geen foto's gemaakt om te testen. Het toest,https://images.marktplaats.com/api/v1/listing-mp-p/images/3c/3c47e715-6411-45f8-b588-a21b9400a4a1?rule=ecg_mp_eps$_82.jpg,https://link.marktplaats.nl/m2221913742,51.521654958446,5.5078099261756,75.0,Ophalen of Verzenden,Vandaag,Ophalen of Verzenden,Rodie
m2221888908,yashica FX-D quartz,De conditie is gebruikt . De body is door het lange opbergen aangetast door de weekmakers in de opbergkoffer. Dit is voor weinig g,https://images.marktplaats.com/api/v1/listing-mp-p/images/b2/b20b4a46-6709-40a7-9154-4e4d7337f8fb?rule=ecg_mp_eps$_82.jpg,https://link.marktplaats.nl/m2221888908,53.016866789547,6.559771604191,0.0,Ophalen of Verzenden,Vandaag,Ophalen of Verzenden,pieter
m2221873884,Nikon F65 met 28-80mm en 70-300mm MOOIE CONDITIE,Een super leuke en nette nikon set bestaande uit een f65 body samen met de af nikkor 28-80mm/3.3-5.6G kitlens en het af nikkor 70-,https://images.marktplaats.com/api/v1/listing-mp-p/images/dd/ddb1f084-aea2-4b92-b96b-d0843efc0cb9?rule=ecg_mp_eps$_82.jpg,https://link.marktplaats.nl/m2221873884,52.549510329202,4.6729046836435,79.0,Ophalen of Verzenden,Vandaag,Gebruikt,Camera For Sale
m2221878952,Canon Eos  50 E eten control met ultrasonisch lens ED 35-80m,In top conditie en werkt naar behoren. Bekijk ook mijn andere advertenties voor meer camera’s en lenzen.,https://images.marktplaats.com/api/v1/listing-mp-p/images/aa/aa1fa082-5bf3-4bf6-8697-eb5e47e1426e?rule=ecg_mp_eps$_82.jpg,https://link.marktplaats.nl/m2221878952,52.134909633332,4.4701445787714,0.0,Ophalen of Verzenden,Vandaag,Ophalen of Verzenden,Anthony
m2221890437,Te koop: Canon t50 spiegel reflex camara met flitser,Canon t50 spiegel reflex camara analoog,https://images.marktplaats.com/api/v1/listing-mp-p/images/1f/1f618493-0798-44ca-bf86-494ff7620d35?rule=ecg_mp_eps$_82.jpg,https://link.marktplaats.nl/m2221890437,52.19018120474,6.000371980264,75.0,Ophalen of Verzenden,Vandaag,Ophalen of Verzenden,Rini Hertgers
m2221879665,Canon camera,Mooie camera retro voor de liefhebber!,https://images.marktplaats.com/api/v1/listing-mp-p/images/61/617a979e-97ae-40f5-afdb-979b54c5de9a?rule=ecg_mp_eps$_82.jpg,https://link.marktplaats.nl/m2221879665,52.197975473367,6.9007106976732,20.0,Ophalen of Verzenden,Vandaag,Ophalen of Verzenden,Petra
m2221876582,Canon EOS 100 met Canon EF 28-80mm/3.5-5.6 USM TOP CONDITIE,Een super leuke en nette vintage canon eos 100 body samen met een canon ef 28-80mm/3.5-5.6 Usm standaard-zoomobjectief. De combina,https://images.marktplaats.com/api/v1/listing-mp-p/images/12/1265ca26-8651-4746-95fd-4d7141617723?rule=ecg_mp_eps$_82.jpg,https://link.marktplaats.nl/m2221876582,52.549510329202,4.6729046836435,69.0,Ophalen of Verzenden,Vandaag,Gebruikt,Camera For Sale
m2221846656,Mamiya Camera analoog en Tamron en Enna Munchen lenzen enz.,Het is 1 mamiya dsx 1000 met mamiya 55 mm lens een mtl5b practica met chinon 55mm lens een sigma 28-80 lens een mini wide ii 28mm ,https://images.marktplaats.com/api/v1/listing-mp-p/images/1a/1aac5527-1d0d-4628-a914-b4bd9c3685d7?rule=ecg_mp_eps$_82.jpg,https://link.marktplaats.nl/m2221846656,51.858769424218,4.50808602441,250.0,Ophalen of Verzenden,Vandaag,Ophalen of Verzenden,Wim
m2221842448,Asahi Pentax S1a izgst getest,Asahi pentax s1a in nette staat. Camera is geheel nagezien en met film getest. Werkt dus naar behoren op alle sluitertijden. Licht,https://images.marktplaats.com/api/v1/listing-mp-p/images/19/19a637ca-9ba8-44dc-8381-738fe6c4e82b?rule=ecg_mp_eps$_82.jpg,https://link.marktplaats.nl/m2221842448,50.951190087095,5.8755558205308,150.0,Verzenden,Vandaag,Verzenden,Bö
m2221846656,Mamiya Camera analoog en Tamron en Enna Munchen lenzen enz.,Het is 1 mamiya dsx 1000 met mamiya 55 mm lens een mtl5b practica met chinon 55mm lens een sigma 28-80 lens een mini wide ii 28mm ,https://images.marktplaats.com/api/v1/listing-mp-p/images/1a/1aac5527-1d0d-4628-a914-b4bd9c3685d7?rule=ecg_mp_eps$_82.jpg,https://link.marktplaats.nl/m2221846656,51.858769424218,4.50808602441,250.0,Ophalen of Verzenden,Vandaag,Ophalen of Verzenden,Wim
m2221842448,Asahi Pentax S1a izgst getest,Asahi pentax s1a in nette staat. Camera is geheel nagezien en met film getest. Werkt dus naar behoren op alle sluitertijden. Licht,https://images.marktplaats.com/api/v1/listing-mp-p/images/19/19a637ca-9ba8-44dc-8381-738fe6c4e82b?rule=ecg_mp_eps$_82.jpg,https://link.marktplaats.nl/m2221842448,50.951190087095,5.8755558205308,150.0,Verzenden,Vandaag,Verzenden,Bö
m2221864515,Nikon F70 met AF Nikkor 35-80mm/4.0-5.6D en flitser,Een super leuke en nette vintage nikon f70 body samen met een nikon af nikkor 35-80mm/4.0-5.6D standaard-zoomobjectief en sigma ef,https://images.marktplaats.com/api/v1/listing-mp-p/images/b5/b56169a5-5759-46e3-bcaa-20f9e5eefceb?rule=ecg_mp_eps$_82.jpg,https://link.marktplaats.nl/m2221864515,52.549510329202,4.6729046836435,59.0,Ophalen of Verzenden,Vandaag,Gebruikt,Camera For Sale
m2221860240,Canon Eos 650 met Canon 35-135 mm lens,In zeer goed staat en alles werkt naar behoren. Bekijk ook mijn andere advertenties voor meer camera’s.,https://images.marktplaats.com/api/v1/listing-mp-p/images/d6/d6b619b8-41de-421c-bdbb-f7e0598849bb?rule=ecg_mp_eps$_82.jpg,https://link.marktplaats.nl/m2221860240,52.134909633332,4.4701445787714,0.0,Ophalen of Verzenden,Vandaag,Ophalen of Verzenden,Anthony
m2221859123,Te koop canon T 70 camera complete set,Complete canon t70 camera incl tas en lensen . Complete set,https://images.marktplaats.com/api/v1/listing-mp-p/images/57/5786c2eb-b40c-4adf-a286-efcc174d1e7e?rule=ecg_mp_eps$_82.jpg,https://link.marktplaats.nl/m2221859123,52.957422830057,6.5638117628114,0.0,Ophalen of Verzenden,Vandaag,Ophalen of Verzenden,Hamo
m2221846529,Analoge Canon Camera,Canon t70 spiegelreflexcamera objectief 35-70 mm. Fotograveren met een rolletje. Inc boekje in het engels. Camera ligt in de kast ,https://images.marktplaats.com/api/v1/listing-mp-p/images/59/59d72372-17b7-4be0-88a2-0f6882176e0b?rule=ecg_mp_eps$_82.jpg,https://link.marktplaats.nl/m2221846529,51.541770287973,4.5896728714756,0.0,Ophalen of Verzenden,Vandaag,Ophalen of Verzenden,andretuyl
m2221865792,Canon AE-1 met FD 50mm/1.8 'new' en flitser in TOP STAAT,En mooie vintage canon ae-1 body samen met het originele canon fd 50mm/1.8 'new' objectief en een zo goed als nieuwe sunpa,https://images.marktplaats.com/api/v1/listing-mp-p/images/ea/ea0fea7c-3526-4dfd-991f-60db7c9ccee7?rule=ecg_mp_eps$_82.jpg,https://link.marktplaats.nl/m2221865792,52.549510329202,4.6729046836435,149.0,Ophalen of Verzenden,Vandaag,Gebruikt,Camera For Sale
m2221837183,Yashica FX-2 met Yashica Lens DSB50mm1:1.9,In top conditie en alles werkt naar behoren. Met lederen hoes. Bekijk ook mijn andere advertenties voor meer camera’s.,https://images.marktplaats.com/api/v1/listing-mp-p/images/bc/bc07bad0-8627-4cb9-924a-67010170e355?rule=ecg_mp_eps$_82.jpg,https://link.marktplaats.nl/m2221837183,52.134909633332,4.4701445787714,0.0,Ophalen of Verzenden,Vandaag,Ophalen of Verzenden,Anthony
m2221828439,Mamiya 4 B   meet camera met Lederen hoes,Werkt goed bekijk ook mijn andere advertenties voor meer camera’s.,https://images.marktplaats.com/api/v1/listing-mp-p/images/aa/aac8f4f7-1bd8-4e4f-8004-e3a9b00e41ca?rule=ecg_mp_eps$_82.jpg,https://link.marktplaats.nl/m2221828439,52.134909633332,4.4701445787714,0.0,Ophalen of Verzenden,Vandaag,Ophalen of Verzenden,Anthony
m2221797093,35 mm Pentax’ camera,Te koop 35 mm pentax spiegelreflex camera met diverse accessoires alles werkt en in orde  en in originele tas,https://images.marktplaats.com/api/v1/listing-mp-p/images/28/28abad83-f14d-414e-abd7-26b934854708?rule=ecg_mp_eps$_82.jpg,https://link.marktplaats.nl/m2221797093,52.230395053501,6.8510671373822,0.0,Ophalen of Verzenden,Vandaag,Ophalen of Verzenden,J D
m2221785948,Rolleicord VA,"Bijzonder nette rolleicord va. Inclusief originele lederen paraattas, rollei zonnekap. Normale gebruikssporen. Het beeld op het ma",https://images.marktplaats.com/api/v1/listing-mp-p/images/07/076ca2cc-6401-455c-a904-177f3f3af75d?rule=ecg_mp_eps$_82.jpg,https://link.marktplaats.nl/m2221785948,52.327566752959,4.8797468712653,200.0,Ophalen of Verzenden,Vandaag,Ophalen of Verzenden,Marco
m2221785948,Rolleicord VA,"Bijzonder nette rolleicord va. Inclusief originele lederen paraattas, rollei zonnekap. Normale gebruikssporen. Het beeld op het ma",https://images.marktplaats.com/api/v1/listing-mp-p/images/07/076ca2cc-6401-455c-a904-177f3f3af75d?rule=ecg_mp_eps$_82.jpg,https://link.marktplaats.nl/m2221785948,52.327566752959,4.8797468712653,200.0,Ophalen of Verzenden,Vandaag,Ophalen of Verzenden,Marco
m2221799111,Canon EOS 1000F/N 1993,Wegens opruimen. Verkeerd in nette staat.  Originele strap + manual + beschermhoes. Niet getest. Wordt goed verpakt verstuurd in b,https://images.marktplaats.com/api/v1/listing-mp-p/images/8b/8b8fa05f-b325-45b1-9876-88d20a5dad44?rule=ecg_mp_eps$_82.jpg,https://link.marktplaats.nl/m2221799111,52.33468586532,4.9405556583509,0.0,Verzenden,Vandaag,Verzenden,Max
m2221790315,Canon AF35M,Canon af35m,https://images.marktplaats.com/api/v1/listing-mp-p/images/b7/b749a2ea-51f4-4bf1-af32-da6dbaaa2333?rule=ecg_mp_eps$_82.jpg,https://link.marktplaats.nl/m2221790315,51.97510286643,6.7163938905829,80.0,Ophalen of Verzenden,Vandaag,Ophalen of Verzenden,LBS
m2221790964,"Exakta Kleinbid Fotografie, Duitse taal uit 1952","Mooi boek, exakta kleinbild fotografie. Totaal 352 blz. Is een beetje krom getrokken (zie foto's), maar verder in goede staat.",https://images.marktplaats.com/api/v1/listing-mp-p/images/10/102e66c9-dd5b-4634-be26-0b9c7acb5b3f?rule=ecg_mp_eps$_82.jpg,https://link.marktplaats.nl/m2221790964,51.384899106746,6.2038510849967,17.5,Ophalen of Verzenden,Vandaag,Ophalen of Verzenden,Munten
m2221781476,Fototoestel yashica,Fototoestel van yashica. Met losse flitser. Half automatisch. Werkt met een fotorolletje (gold 100 35mm) . Inclusief losse zonneka,https://images.marktplaats.com/api/v1/listing-mp-p/images/6a/6abbd578-07c5-46fd-963e-90b69794a7d2?rule=ecg_mp_eps$_82.jpg,https://link.marktplaats.nl/m2221781476,51.668534598356,5.3680193949268,0.0,Ophalen of Verzenden,Vandaag,Ophalen of Verzenden,van Alebeek
m2221780682,pentax zoom 105 super,Pentax zoom 105 super inclusief tas,https://images.marktplaats.com/api/v1/listing-mp-p/images/33/337d4d4e-9f29-41b2-bb46-be5b3ef49e71?rule=ecg_mp_eps$_82.jpg,https://link.marktplaats.nl/m2221780682,51.815198909306,5.8339153211721,10.0,Ophalen of Verzenden,Vandaag,Ophalen of Verzenden,Paul
m2221778717,Project Rolleiflex met Tessar 75 mm f/3.5 met paraattas etc.,Project rolleiflex met tessar 75 mm f/3.5 Met paraattas en diverse inlegmaskers in hoesje. Deze rolleiflex verdient aandacht. De s,https://images.marktplaats.com/api/v1/listing-mp-p/images/31/31c69a9c-47d4-41ea-beb8-c965f6ab3828?rule=ecg_mp_eps$_82.jpg,https://link.marktplaats.nl/m2221778717,52.149623457741,5.2086789672963,0.0,Ophalen of Verzenden,Vandaag,Ophalen of Verzenden,Hans
m2221775658,Nikon AF 600,Goedwerkende nikon af 600. Met accessoires. Heeft een tijd stilgestaan. Knopjes zijn wat stroef maar zal met gebruik weer vlotter ,https://images.marktplaats.com/api/v1/listing-mp-p/images/fc/fc34ca1b-e3ce-434b-a7bf-4b1926b97722?rule=ecg_mp_eps$_82.jpg,https://link.marktplaats.nl/m2221775658,52.993382306377,6.5582891220599,0.0,Verzenden,Vandaag,Verzenden,Asser Stadsfotograaf
m2221767963,Canon  EF  complete set.,Canon ef camera met macro lens 135 telelens een bal apparaat en een duplicator met flitser diverse filters.,https://images.marktplaats.com/api/v1/listing-mp-p/images/19/19ee40ff-968a-434d-90e5-d430e118d001?rule=ecg_mp_eps$_82.jpg,https://link.marktplaats.nl/m2221767963,51.64807347154,5.9373102897974,150.0,Ophalen,Vandaag,Ophalen,Smits
m2221781626,Canon af35mm,"Ik verkoop deze mooie canon af35m. Top toestel maar is jammer genoeg eens gevallen,  waardoor het aan de zoeker wat beschadigd ger",https://images.marktplaats.com/api/v1/listing-mp-p/images/ba/bafcb5bb-fbed-4204-b4ff-c8e2b940a372?rule=ecg_mp_eps$_82.jpg,https://link.marktplaats.nl/m2221781626,51.286358112287,4.0327741537612,45.0,Ophalen,Vandaag,Ophalen,photocam
m2221776592,"Exa, Exakta, Ihagee gebruikershandleidingen etc.","Leuke verzameling handleidingen van exa, exakta, ihagee in wisselende staat. Alles op foto 1 is origineel. Alles op foto 2 zijn ko",https://images.marktplaats.com/api/v1/listing-mp-p/images/99/99328123-da36-4284-8d38-9c7dfc9ae886?rule=ecg_mp_eps$_82.jpg,https://link.marktplaats.nl/m2221776592,51.384899106746,6.2038510849967,65.0,Ophalen of Verzenden,Vandaag,Ophalen of Verzenden,Munten
m2221755892,Pentax 110 lenzen en flitsers,Verschillende lenzen en flitsers voor meer info neem dan contact met me op. Ook een motordrive erbij. Geen camera!,https://images.marktplaats.com/api/v1/listing-mp-p/images/65/65763348-8d1b-4f49-80d7-40d597a0e912?rule=ecg_mp_eps$_82.jpg,https://link.marktplaats.nl/m2221755892,51.544228688278,5.0965638835806,110.0,Ophalen of Verzenden,Vandaag,Ophalen of Verzenden,Verschuren
m2221755892,Pentax 110 lenzen en flitsers,Verschillende lenzen en flitsers voor meer info neem dan contact met me op. Ook een motordrive erbij. Geen camera!,https://images.marktplaats.com/api/v1/listing-mp-p/images/65/65763348-8d1b-4f49-80d7-40d597a0e912?rule=ecg_mp_eps$_82.jpg,https://link.marktplaats.nl/m2221755892,51.544228688278,5.0965638835806,110.0,Ophalen of Verzenden,Vandaag,Ophalen of Verzenden,Verschuren
m2221749221,Nikon FM + 50mm/1.4 Ai s in top staat,"Bij deze te koop; nikon fm in uitstekende staat. Alles dik in orde met nieuwe seals. De 50mm/1.4 Ai s is in top staat. Krasloos, l",https://images.marktplaats.com/api/v1/listing-mp-p/images/af/afe90205-7240-4e54-be18-df7cf74e61d3?rule=ecg_mp_eps$_82.jpg,https://link.marktplaats.nl/m2221749221,51.917745415719,4.4529741001938,0.0,Ophalen,Vandaag,Ophalen,Koning
m2221718739,Konica Autoreflex TC met lenzen en toebehoren.,"Konica autoreflex tc met 5 lenzen en toebehoren. Camera werkt, lichtmeter werkt, schoon batterijhuis en vertoond de gebruikelijke ",https://images.marktplaats.com/api/v1/listing-mp-p/images/7c/7c3fa6c7-ee66-46b6-963a-b136f2f8cdf0?rule=ecg_mp_eps$_82.jpg,https://link.marktplaats.nl/m2221718739,51.482942922744,3.5523108897345,0.0,Ophalen of Verzenden,Vandaag,Ophalen of Verzenden,Wielemaker
m2221718818,Nikon F75 + 28-100mm lens,Mooie kit van nikon. In prima staat. Komt in een doos. Ik verkoop hem omdat ik hem nooit gebruik. Doe een serieus bod en hij is va,https://images.marktplaats.com/api/v1/listing-mp-p/images/b8/b81ecaea-745f-4132-ae0b-a0cfbb3606e7?rule=ecg_mp_eps$_82.jpg,https://link.marktplaats.nl/m2221718818,52.113284499489,4.2830553796219,0.0,Ophalen,Vandaag,Ophalen,Knaape
m2221728869,Nikon f bodem plaat voor gebruik met motor,Nikon f bodem plaat voor motor. Moeilijk aan te komen . Zgan,https://images.marktplaats.com/api/v1/listing-mp-p/images/b2/b26966d2-8202-44bb-bfff-c0e640e52727?rule=ecg_mp_eps$_82.jpg,https://link.marktplaats.nl/m2221728869,50.923113939714,5.9266365226335,0.0,Verzenden,Vandaag,Verzenden,zippotrust
m2221720800,Nedinsco Primo camera 1958,Nette nedinsco primo camera uit 1958 de camera in in nederland gemaakt komt uit venlo,https://images.marktplaats.com/api/v1/listing-mp-p/images/6b/6bc2f525-5013-4b50-ba9c-6f61b72be1f1?rule=ecg_mp_eps$_82.jpg,https://link.marktplaats.nl/m2221720800,52.788162164,6.8936707855567,55.0,Ophalen of Verzenden,Vandaag,Ophalen of Verzenden,Gerard
m2221691040,Pentax Espio 140M Zoom,I am selling this because i don’t use it anymore. It is tested and works fine.,https://images.marktplaats.com/api/v1/listing-mp-p/images/4c/4c4c34ac-31ac-41b6-a72d-686ffa441137?rule=ecg_mp_eps$_82.jpg,https://link.marktplaats.nl/m2221691040,52.389626224924,4.9033875915054,35.0,Ophalen of Verzenden,Vandaag,Ophalen of Verzenden,Laura
m2221683617,"Pentax ME spiegelreflex camera met 1,7 objectief",Goed werkende pentax me.,https://images.marktplaats.com/api/v1/listing-mp-p/images/32/3286ab8e-c384-4cb8-8fa9-ced8bf7036fd?rule=ecg_mp_eps$_82.jpg,https://link.marktplaats.nl/m2221683617,53.201404990526,5.7893787382226,0.0,Ophalen of Verzenden,Vandaag,Ophalen of Verzenden,ladresse
m2219441394,"Rolleiflex 3,5 F met Schneider Xenotar 3,5-75. + 16 opn set.","Rollei rolleiflex 3,5 f met schneider kreuznach xenotar 3,5/75 lens. Mooie 6 x 6 rolleiflex met de uitmuntende schneider 6 lenzige",https://images.marktplaats.com/api/v1/listing-mp-p/images/6a/6ab008a7-eea4-4efc-93d4-b9db7d20ac4d?rule=ecg_mp_eps$_82.jpg,https://link.marktplaats.nl/m2219441394,51.879784299623,6.2551585777481,875.0,Ophalen of Verzenden,Vandaag,Ophalen of Verzenden,Hans
m2221691790,Nikon Nikkor 55-200mm Nu voor maar €149.99,Te koop aangeboden bij used products zoetermeer: nikon nikkor 55-200mm  diafragma 4-5.6 Verkeerd in goede staat werkt uitstekend 1,https://images.marktplaats.com/api/v1/listing-mp-p/images/60/602458aa-214c-4b0e-a7ef-1e14b49dc2ad?rule=ecg_mp_eps$_82.jpg,https://link.marktplaats.nl/m2221691790,52.061439716613,4.4872934166247,149.99,Ophalen of Verzenden,Vandaag,Ophalen of Verzenden,Used Products Zoetermeer
m2221701516,Canon IXUS II (Analoog),Vintage analoge camera. Zelf toevoegen: batterij en film,https://images.marktplaats.com/api/v1/listing-mp-p/images/c6/c674e363-c266-46f6-9878-4bac7ea14be3?rule=ecg_mp_eps$_82.jpg,https://link.marktplaats.nl/m2221701516,52.0505819672,4.2743903199574,25.0,Ophalen of Verzenden,Vandaag,Ophalen of Verzenden,Ralph
m2221698222,Mooie Canon camera EOS 300 analoog,"Mooie canon camera eos 300 analoog lk doe deze camera weg, omdat ik een digitale heb gekocht. Hij is niet veel gebruikt en ziet er",https://images.marktplaats.com/api/v1/listing-mp-p/images/c0/c03c9fb4-f0ea-410c-b01c-a16e2618dfdc?rule=ecg_mp_eps$_82.jpg,https://link.marktplaats.nl/m2221698222,51.830939434332,5.8531873074484,65.0,Ophalen of Verzenden,Vandaag,Ophalen of Verzenden,Peter
m2221664026,Canon FT + 2 Lenzen en Lichtmeter accessoire,"Mooie canon ft body met 2 lenzen: canon fl 50mm 1.8 En canon fl 135mm 3.5 En de canon booster, losse lichtmeter aan te sluiten op ",https://images.marktplaats.com/api/v1/listing-mp-p/images/70/70570634-e3bf-4067-8790-11afcee74c0a?rule=ecg_mp_eps$_82.jpg,https://link.marktplaats.nl/m2221664026,51.491838429,3.8910624332539,0.0,Ophalen of Verzenden,Vandaag,Ophalen of Verzenden,Cams and Games
m2221674884,6x spiegelreflex (Pentax K1000 / Minolta XD5-XG1),6x spiegelreflexcamera's 1x pentax k1000 (werkt goed) 1x minolta xd5 met motordrive 1x minolta xd5 met 135 1x x-9 2x xg1 geen ,https://images.marktplaats.com/api/v1/listing-mp-p/images/2a/2ae988ab-7415-4630-ba7d-1c107487e75d?rule=ecg_mp_eps$_82.jpg,https://link.marktplaats.nl/m2221674884,50.864990152629,5.8242934360988,75.0,Ophalen of Verzenden,Vandaag,Ophalen of Verzenden,BVC
m2221645405,Rollei zonnekap,"Rollei zonnekap, bayonet 1. Zeer nette rollei zonnekap, bajonet 1. Geschikt voor o.a. De rolleicord , yashica enz. Zie de foto’s. ",https://images.marktplaats.com/api/v1/listing-mp-p/images/37/375467df-05a7-4c99-991d-50ea74d29201?rule=ecg_mp_eps$_82.jpg,https://link.marktplaats.nl/m2221645405,52.322381881624,4.8614713158242,25.0,Ophalen of Verzenden,Vandaag,Ophalen of Verzenden,br
m2221661331,Nikon foto camera,Nikon foto camera met doos,https://images.marktplaats.com/api/v1/listing-mp-p/images/fa/fa8f4f40-dc2d-4b69-833d-3258a4a19800?rule=ecg_mp_eps$_82.jpg,https://link.marktplaats.nl/m2221661331,50.808592930951,5.9573156654205,10.0,Ophalen of Verzenden,Vandaag,Ophalen of Verzenden,Dettori
m2221664026,Canon FT + 2 Lenzen en Lichtmeter accessoire,"Mooie canon ft body met 2 lenzen: canon fl 50mm 1.8 En canon fl 135mm 3.5 En de canon booster, losse lichtmeter aan te sluiten op ",https://images.marktplaats.com/api/v1/listing-mp-p/images/70/70570634-e3bf-4067-8790-11afcee74c0a?rule=ecg_mp_eps$_82.jpg,https://link.marktplaats.nl/m2221664026,51.491838429,3.8910624332539,0.0,Ophalen of Verzenden,Vandaag,Ophalen of Verzenden,Cams and Games
m2221655518,Camera analoog canon,Camera analoog canon met motordrove en zoomlens25,https://images.marktplaats.com/api/v1/listing-mp-p/images/a9/a95259ac-7768-403b-a284-e054140477fe?rule=ecg_mp_eps$_82.jpg,https://link.marktplaats.nl/m2221655518,51.417414071004,5.5001008076876,25.0,Ophalen of Verzenden,Vandaag,Ophalen of Verzenden,Walter Haenen
m2221604027,Canon 18- 200,Mooie lens met groot bereik. Ideale lens om mee op pad te gaan.,https://images.marktplaats.com/api/v1/listing-mp-p/images/85/8546343b-772e-4316-9922-372f670cfd7a?rule=ecg_mp_eps$_82.jpg,https://link.marktplaats.nl/m2221604027,52.491116467315,5.4967120944838,240.0,Ophalen of Verzenden,Vandaag,Ophalen of Verzenden,esther
m2221605171,Canon EOS 10 Body,"Canon eos 10 body, analoge professionele spiegelreflex op filmrol.",https://images.marktplaats.com/api/v1/listing-mp-p/images/ff/ff1b46a3-f41c-431b-af56-063bee055818?rule=ecg_mp_eps$_82.jpg,https://link.marktplaats.nl/m2221605171,52.415240332148,6.6164131897622,75.0,Ophalen of Verzenden,Vandaag,Ophalen of Verzenden,Jansen
m2221604955,Canon 18-55 IS II,Mooie basis lens met stabilisatie.,https://images.marktplaats.com/api/v1/listing-mp-p/images/02/027acb0d-c7c5-43fc-813e-5cb748f4b98d?rule=ecg_mp_eps$_82.jpg,https://link.marktplaats.nl/m2221604955,52.491116467315,5.4967120944838,70.0,Ophalen of Verzenden,Vandaag,Ophalen of Verzenden,esther
m2221581738,CANON T70 MET LENZEN EN FLITSERS,"Canon t70 fotocamera met 2 lenzen, 2 flitsers en tas.",https://images.marktplaats.com/api/v1/listing-mp-p/images/20/20d1d3da-a0d7-424f-b57c-25681b7360ea?rule=ecg_mp_eps$_82.jpg,https://link.marktplaats.nl/m2221581738,51.911829380399,4.3982487686034,0.0,Ophalen of Verzenden,Vandaag,Ophalen of Verzenden,Kosten
m2221586403,Nikon fe pronea d70 d70s 401x f65 f55 f50 8 stuks,Verzameling nikon. Zie foto's. 28Mm 1:2.8 Sigma xd,https://images.marktplaats.com/api/v1/listing-mp-p/images/53/530de2f0-3556-4931-9734-9a3e597f64de?rule=ecg_mp_eps$_82.jpg,https://link.marktplaats.nl/m2221586403,52.730251983275,6.8971892801248,300.0,Ophalen,Vandaag,Ophalen,Dirk
m2221581738,CANON T70 MET LENZEN EN FLITSERS,"Canon t70 fotocamera met 2 lenzen, 2 flitsers en tas.",https://images.marktplaats.com/api/v1/listing-mp-p/images/20/20d1d3da-a0d7-424f-b57c-25681b7360ea?rule=ecg_mp_eps$_82.jpg,https://link.marktplaats.nl/m2221581738,51.911829380399,4.3982487686034,0.0,Ophalen of Verzenden,Vandaag,Ophalen of Verzenden,Kosten
m2221593438,Zenith ES Photosniper camera analoog,Dit product wordt u aangeboden door pandjeshuis harlingen: artikelnummer: 128001. Weer een prachtige fonds deze zenith photosniper,https://images.marktplaats.com/api/v1/listing-mp-p/images/7a/7a2e50f0-dcd0-4984-8054-6af3464d0582?rule=ecg_mp_eps$_82.jpg,https://link.marktplaats.nl/m2221593438,53.174733437215,5.418688694019,150.0,Ophalen of Verzenden,Vandaag,Ophalen of Verzenden,Pandjeshuis Friesland
m2221569072,Rollei Magic  II grootbeeld,"Rollei magic ii prima werkend. Schneider kreuznach, heidosmat zoeker, xenar f/1:3.5/75 Mm. Is paar jaar geleden gereviseerd, daarn",https://images.marktplaats.com/api/v1/listing-mp-p/images/b2/b2984478-ca3d-4c1f-b770-a3fa5e5d7cb8?rule=ecg_mp_eps$_82.jpg,https://link.marktplaats.nl/m2221569072,51.908393576358,4.5883680145645,295.0,Ophalen of Verzenden,Vandaag,Ophalen of Verzenden,koos
m2221577514,Canon AE-1 Program,Canon spiegelreflexcamera ae-1 program lens canon fd 50 mm 1 : 1.8 Met originele tas - leer uitgedroogd lenskapje canon,https://images.marktplaats.com/api/v1/listing-mp-p/images/97/97aaf878-1889-4ad7-ac86-949853224661?rule=ecg_mp_eps$_82.jpg,https://link.marktplaats.nl/m2221577514,53.182461768434,5.8083673117989,0.0,Ophalen of Verzenden,Vandaag,Ophalen of Verzenden,Thomas
m2221556748,Nikon FM met Nikkor zoomobjectief,Body en objectief in goede werkende staat. Vrijwel geen gebruiksporen. Mail gerust voor meer info.,https://images.marktplaats.com/api/v1/listing-mp-p/images/39/3973fff1-ff87-43e5-a83b-d298e786c888?rule=ecg_mp_eps$_82.jpg,https://link.marktplaats.nl/m2221556748,52.025515747,4.2945544281115,130.0,Ophalen of Verzenden,Vandaag,Ophalen of Verzenden,NLJoop
m2221539492,Canon Prima Twin S || Nu Voor Maar €59.99,"Te koop aangeboden bij used products zoetermeer: canon prima twin s shutter: electronic leaf, 1/8s - 1/250s. Inclusief draagtasje ",https://images.marktplaats.com/api/v1/listing-mp-p/images/02/023a0e51-0b98-4ee6-9c3c-e6b99624a5a2?rule=ecg_mp_eps$_82.jpg,https://link.marktplaats.nl/m2221539492,52.061439716613,4.4872934166247,59.99,Ophalen of Verzenden,Vandaag,Ophalen of Verzenden,Used Products Zoetermeer
m2221524995,Pentax Espio 115M analoge camera,In zeer goede staat verkerende en zeer goed werkende pentax espio 115m analoge camera + één nieuwe batterij. A.u.b. Bieden naar wa,https://images.marktplaats.com/api/v1/listing-mp-p/images/c2/c2df8a4e-1350-48ad-a4aa-3a1599071414?rule=ecg_mp_eps$_82.jpg,https://link.marktplaats.nl/m2221524995,52.357118226932,4.652079391018,49.99,Ophalen of Verzenden,Vandaag,Ophalen of Verzenden,The Audio Sensei
m2221524608,7 x Nikon camera: & accessoires:   -NIKON D1x body & AF-NIKK,"7 x nikon camera: & accessoires:  -nikon d1x body & af-nikkor 55-200mm 1:4-5.6G ed (geen lader) € 225,=. -Nikon em me",https://images.marktplaats.com/api/v1/listing-mp-p/images/78/781182ed-f4d1-42ca-be16-15b0f420e9df?rule=ecg_mp_eps$_82.jpg,https://link.marktplaats.nl/m2221524608,53.062334129073,5.5151243920855,375.0,Ophalen of Verzenden,Vandaag,Ophalen of Verzenden,Gerlof
m2221519266,Canon T90,"Canon t90 body uiterlijk in goede conditie, weet niet of het nog goed werkt. Doe een mooi bod.",https://images.marktplaats.com/api/v1/listing-mp-p/images/20/206c166a-77f6-4801-beac-834b7abcf1b6?rule=ecg_mp_eps$_82.jpg,https://link.marktplaats.nl/m2221519266,52.389600663562,4.6208124201561,0.0,Ophalen of Verzenden,Vandaag,Ophalen of Verzenden,Lydia
m2221490521,Nikon 28Ti,"Ik bied hierbij een mooie compact camera aan van 28mm. Vrijwel zelf bijna nooit gebruikt. Zo goed als nieuw, alleen is er een klei",https://images.marktplaats.com/api/v1/listing-mp-p/images/ab/ab37340f-99bb-40f1-9db1-90a191b69968?rule=ecg_mp_eps$_82.jpg,https://link.marktplaats.nl/m2221490521,52.36211085407,4.926932744593,0.0,Ophalen of Verzenden,Vandaag,Ophalen of Verzenden,Ser
m2221498463,Nikon F met eye level finder,"Nikon f eye level in hele mooie staat. Sluitertijden en transport lopen mooi, heb het idee dat 1 seconde iets te snel is, zul je i",https://images.marktplaats.com/api/v1/listing-mp-p/images/1a/1a2f7141-d544-4588-909c-6238d85aed94?rule=ecg_mp_eps$_82.jpg,https://link.marktplaats.nl/m2221498463,53.401518730648,6.6122895286791,0.0,Ophalen,Vandaag,Ophalen,Jaap
m2221479426,Mooie Analoge Nikon set. Nikon F3 + 8 objectieven.,"Fantastische analoge nikonset. Nikon f3 plus motordrive nikkor 135mm 1:2,8 micro nikkor 200 mm 1:4 nikkor 35mm1.2 Nikkor 28mm 1:2.",https://images.marktplaats.com/api/v1/listing-mp-p/images/da/dae19c25-eb60-4823-a305-33dae57b7677?rule=ecg_mp_eps$_82.jpg,https://link.marktplaats.nl/m2221479426,52.370069358533,4.8796278182365,600.0,Ophalen of Verzenden,Vandaag,Ophalen of Verzenden,jansje
m2221495425,Vintage CANON 110 ED  20,Vintage canon 110 ed 20 in nieuw staat met orginele hoes we hebben meer leuke items op marktplaats staan verzendkosten voor de kop,https://images.marktplaats.com/api/v1/listing-mp-p/images/19/19497466-5b02-497d-bcbd-af32e97adbfd?rule=ecg_mp_eps$_82.jpg,https://link.marktplaats.nl/m2221495425,52.014705447606,4.2606653215156,0.0,Verzenden,Vandaag,Verzenden,ZAT handel
m2221482859,CANON ANALOGE SPIEGELREFLEX CAMERA EOS 500,"Mooie canon eos500n analoge fotocamera inclusief originele tas en draagband. Igst, objectief zonder krassen. Autofocus + mogelijkh",https://images.marktplaats.com/api/v1/listing-mp-p/images/4f/4f82f232-e811-4702-8f08-e425e218d3bb?rule=ecg_mp_eps$_82.jpg,https://link.marktplaats.nl/m2221482859,51.952589731919,4.5967677392359,95.0,Ophalen of Verzenden,Vandaag,Ophalen of Verzenden,Rob van der Horst
m2221475895,Canon A1 (body only),"Heb hem dubbel en ga over na een m-mount camera. Dus er kan er eentje weg.  Canon a1 met grip, geen lenzen. Recent nog gebruikt en",https://images.marktplaats.com/api/v1/listing-mp-p/images/a3/a3017d18-bd65-4a71-b31f-39e59b6b96c2?rule=ecg_mp_eps$_82.jpg,https://link.marktplaats.nl/m2221475895,52.04601138831,5.2223956133099,150.0,Ophalen of Verzenden,Vandaag,Ophalen of Verzenden,Ward Mevis
m2221453811,YASHICA MINITEC AF,"Yashica minitec af compact film camera. Vaste lens 32 mm f 3,5. Inclusief gebruiksaanwijzing opbergtasje en polsband. In goede en ",https://images.marktplaats.com/api/v1/listing-mp-p/images/b6/b69ec574-d3eb-4346-b7e9-78436ac4db6b?rule=ecg_mp_eps$_82.jpg,https://link.marktplaats.nl/m2221453811,51.45611730702,5.6307377312237,45.0,Ophalen of Verzenden,Vandaag,Ophalen of Verzenden,cor
m2221469538,Yashica TL Electro,Oude analoge camera yashica tl electro. Werking onbekend,https://images.marktplaats.com/api/v1/listing-mp-p/images/eb/eb85b7a9-acea-44a9-ba98-84066db7f4a4?rule=ecg_mp_eps$_82.jpg,https://link.marktplaats.nl/m2221469538,52.133606884455,5.4223644438877,0.0,Ophalen,Vandaag,Ophalen,Ernst
m2221457088,Pentax camera,De camera is van mijn overleden vader geweest. Ik heb geen idee of hij nog werkt. Misschien interessant voor een liefhebber.,https://images.marktplaats.com/api/v1/listing-mp-p/images/0f/0f2ae0e5-b245-41a8-a977-30a36ba334f6?rule=ecg_mp_eps$_82.jpg,https://link.marktplaats.nl/m2221457088,51.980527437231,4.5815210561337,0.0,Ophalen of Verzenden,Vandaag,Ophalen of Verzenden,Nesselande
m2221453879,Pentax zoom analoge fotocamera,Pentax analoge fotocamera,https://images.marktplaats.com/api/v1/listing-mp-p/images/69/69369b34-6297-47cf-8a15-d0b20b62c9af?rule=ecg_mp_eps$_82.jpg,https://link.marktplaats.nl/m2221453879,51.88452418496,5.8321139723097,34.99,Ophalen of Verzenden,Vandaag,Ophalen of Verzenden,Just_In
m2221455120,NIKON  ACCESSOIRES,"Uit nalatenschap voor de liefhebber, alles in doos: nikon - e900  flitsbeugel met voetje nikon mc - eu1  afstandsbediening met kab",https://images.marktplaats.com/api/v1/listing-mp-p/images/2e/2e16a271-7b9d-4577-8a67-f0fd960f078c?rule=ecg_mp_eps$_82.jpg,https://link.marktplaats.nl/m2221455120,51.830141392532,4.3392274922895,25.0,Ophalen of Verzenden,Vandaag,Ophalen of Verzenden,B. Nijman
m2221461949,Canon EOS 50/50E,Mooie analoge canon camera. Met boekje en afstandsbediening rs60-e3 eventueel in 1 koop met de lenzen. 75-2000Mm en fd 85 mm 1.8  ,https://images.marktplaats.com/api/v1/listing-mp-p/images/18/18760780-af71-48e4-9a26-25c5d12ea959?rule=ecg_mp_eps$_82.jpg,https://link.marktplaats.nl/m2221461949,51.529188429241,4.56164071807,0.0,Ophalen of Verzenden,Vandaag,Ophalen of Verzenden,Yvonne
m2221466723,Zenit-B 35mm camera,"Mooie zenit-b lens reflex 35mm camera, gemaakt in 1959 in de ussr. Deze versie heeft nog de industar 50-2 lens.",https://images.marktplaats.com/api/v1/listing-mp-p/images/5a/5a74e185-9d5f-4825-8e0e-7cde5dd7370f?rule=ecg_mp_eps$_82.jpg,https://link.marktplaats.nl/m2221466723,52.500608485383,4.7479646250219,0.0,Ophalen of Verzenden,Vandaag,Gebruikt,Lehmstrom
m2221433574,Russische Soviet CCCP (foto e.a.) lenzen (zie lijst),"Russische vintage soviet cccp lenzen uit het ""analoge tijdperk"" voor fotografie en verder enkele projectie- en vergroter",https://images.marktplaats.com/api/v1/listing-mp-p/images/24/245fc6ee-9b55-4f7d-b6ab-7fa6ef56b0d3?rule=ecg_mp_eps$_82.jpg,https://link.marktplaats.nl/m2221433574,50.971321178746,5.976863775125,0.0,Ophalen of Verzenden,Vandaag,Ophalen of Verzenden,WiQu
m2221444947,Yashica 17 EE Rapid,Met beschermkap,https://images.marktplaats.com/api/v1/listing-mp-p/images/b9/b99af2d6-d2ab-47c7-b8dc-0e9c4d4c88cf?rule=ecg_mp_eps$_82.jpg,https://link.marktplaats.nl/m2221444947,52.155970117308,5.4180782600626,0.0,Ophalen of Verzenden,Vandaag,Ophalen of Verzenden,Willem
m2221430437,Rolleiflex T ZeerGoedeStaat 1 Jaar Garantie,"De rolleiflex t is een klassieke tweecilinder spiegelreflexcamera die geliefd is bij analoge fotografen. Deze camera, geproduceerd",https://images.marktplaats.com/api/v1/listing-mp-p/images/e4/e4b24d22-1a1a-4e35-b8ec-c5b1ffbc5a4f?rule=ecg_mp_eps$_82.jpg,https://link.marktplaats.nl/m2221430437,52.376186980108,4.8959616321988,995.0,Ophalen of Verzenden,Vandaag,Ophalen of Verzenden,Profotica
m2221450187,Rollei camera,Gloednieuw in doos en niet gebruikt mooie beschermtas krijg je er zo bij. Ophalen voor 30 euro,https://images.marktplaats.com/api/v1/listing-mp-p/images/fc/fc51473c-db30-434b-967a-f2a429ea56ba?rule=ecg_mp_eps$_82.jpg,https://link.marktplaats.nl/m2221450187,52.270714259389,6.1669638140832,0.0,Ophalen,Vandaag,Ophalen,G.J
m2221437537,Canon T70 camera,Canon t70 camera canon zoom lens fd 35-70 mm 1:4 af sunpark auto 24 dx thyristor ako tas status: is in gebruikte staat heel graag ,https://images.marktplaats.com/api/v1/listing-mp-p/images/df/df260c87-d445-454b-8f8c-18e77b131843?rule=ecg_mp_eps$_82.jpg,https://link.marktplaats.nl/m2221437537,52.343788638502,4.6312678394739,39.99,Ophalen of Verzenden,Vandaag,Ophalen of Verzenden,Snuffelmug
m2221404990,Olympus OM-1 camera met speciale lenzen voor binnenoor.,Ik vond bij het opruimen van een kast de olympus om-1 35mm camera van mijn vader. Mijn vader was keel neus en oorarts was en hij g,https://images.marktplaats.com/api/v1/listing-mp-p/images/c8/c8e0999f-91d4-4e75-b602-9afca2e01372?rule=ecg_mp_eps$_82.jpg,https://link.marktplaats.nl/m2221404990,51.883660734278,5.8807305361123,100.0,Ophalen of Verzenden,Vandaag,Ophalen of Verzenden,JaapJ
m2221412320,Canon eos 500N body dus zonder lenzen,Canon eos 500n body dus zonder lenzen,https://images.marktplaats.com/api/v1/listing-mp-p/images/00/009fe984-95c9-43a1-a26b-186571853f20?rule=ecg_mp_eps$_82.jpg,https://link.marktplaats.nl/m2221412320,52.504771232079,5.4858205399703,30.0,Verzenden,Vandaag,Verzenden,henk.hilbrands
m2221411703,Canon EOS 500n met 3 Canon lenzen,Ophalen in amsterdam: canon eos 500n met 3 canon lenzen: - 50mm - ⁠28-80mm zoom - ⁠80-200mm inclusief tas en nieuwe batterijen. In,https://images.marktplaats.com/api/v1/listing-mp-p/images/66/6646367a-a7c3-4671-a03c-8c71efb2d70d?rule=ecg_mp_eps$_82.jpg,https://link.marktplaats.nl/m2221411703,52.349570288612,4.9037120418394,200.0,Ophalen,Vandaag,Ophalen,Hoppa!
m2221420159,Hasselblad Polaroid Back 100 for 6x6 V-series 500 c/m etc,"In tip top staat, werkt heel mooi. Geschikt om polaroid en fujifilm peel apart film mee te schieten. Zitten gebruiks krassen op ma",https://images.marktplaats.com/api/v1/listing-mp-p/images/67/6753b018-962d-4c06-a37e-c68a6f2de950?rule=ecg_mp_eps$_82.jpg,https://link.marktplaats.nl/m2221420159,52.386956033486,4.9163190087412,35.0,Ophalen of Verzenden,Vandaag,Ophalen of Verzenden,zomersmooi
m2221404216,Yashica Mat (TwinLensReflex)camera,"Yashica mat tlr, voorzien van originele yashica zonnekap. Bovenste (zoeker) lens betreft een yashinon 80mm f/3.2. De opnamelens be",https://images.marktplaats.com/api/v1/listing-mp-p/images/4a/4aff0a4e-76aa-4545-9f4e-8b380909631f?rule=ecg_mp_eps$_82.jpg,https://link.marktplaats.nl/m2221404216,51.823873971744,4.6480040286066,0.0,Ophalen of Verzenden,Vandaag,Ophalen of Verzenden,Albert
m2221411134,camera Yashica FX 3  met 55mm  1:2  obj.,Yashica  fx 3   met 55mm  1:2  obj   nieuw leer op de body .,https://images.marktplaats.com/api/v1/listing-mp-p/images/b9/b94987ab-8479-4eb9-8004-ebaf34c1bc40?rule=ecg_mp_eps$_82.jpg,https://link.marktplaats.nl/m2221411134,50.889810277272,6.0099546915934,60.0,Ophalen of Verzenden,Vandaag,Ophalen of Verzenden,Eric
m2221417155,Yashica minister-D nr md4032102 japan in zgs Lichtmeter came,"Yashica minister-d nr md4032102 japan in zgs lichtmeter camera voor de serieuze verzamelaar,deze ziet er nog perfect uit werkt het",https://images.marktplaats.com/api/v1/listing-mp-p/images/a3/a37eefa7-83c8-4a3c-a4db-8fdb0de9cfe4?rule=ecg_mp_eps$_82.jpg,https://link.marktplaats.nl/m2221417155,52.504771232079,5.4858205399703,45.0,Verzenden,Vandaag,Verzenden,henk.hilbrands
m2221422522,Mamiya 6 met 75mm f3.5 en 50mm f4,"Mamiya 6, medium format camera (6x6). Body inclusief twee originele mamiya lenzen (75mm 3.5 En 50mm 4) in 2014 gekocht in een came",https://images.marktplaats.com/api/v1/listing-mp-p/images/af/afc8d551-20a5-4a7a-b441-70b67a547d75?rule=ecg_mp_eps$_82.jpg,https://link.marktplaats.nl/m2221422522,52.076392042556,5.1179570909582,0.0,Ophalen,Vandaag,Ophalen,mjkuijper
m2221401968,Camera Pentax Espio 738 met hoesje.,In nette staat. Lang geleden werkend weggelegd. Ook op te halen in purmerend. Zie ook mijn andere advertenties voor meer leuke vin,https://images.marktplaats.com/api/v1/listing-mp-p/images/7f/7f7f1310-a0b3-4427-9fbb-031666781e9a?rule=ecg_mp_eps$_82.jpg,https://link.marktplaats.nl/m2221401968,52.660737107865,5.2038674400835,50.0,Verzenden,Vandaag,Verzenden,mamma's hobby
m2221423703,pentax efina T met zoomlens en hier hoort een fimrolletje in,Pentax efina t met zoomlens en hier hoort een fimrolletje in en is dus wel degelijk een analoge camera,https://images.marktplaats.com/api/v1/listing-mp-p/images/f8/f827e815-e041-43ea-aa14-f9893e392325?rule=ecg_mp_eps$_82.jpg,https://link.marktplaats.nl/m2221423703,52.504771232079,5.4858205399703,35.0,Verzenden,Vandaag,Verzenden,henk.hilbrands
m2221411311,Perfecte Pentax MZ5N body analoog AF/MF,"Compleet met doos en handleiding: perfecte af en mf analoge pentax mz5n. Klassieke lay out met af, program, diafragma- en sluitert",https://images.marktplaats.com/api/v1/listing-mp-p/images/2f/2fa0efc9-6a97-4e7c-8047-e29dd382f8fd?rule=ecg_mp_eps$_82.jpg,https://link.marktplaats.nl/m2221411311,51.696006839816,5.2683812013857,55.0,Ophalen of Verzenden,Vandaag,Ophalen of Verzenden,Wim
m2221401381,Nikon body - Nikon motordrive - Nikon 50mm lens.,.. - Nikon fe body - nieuwe batt. - Nikon md-12 motordrive - nieuwe batt. - Nikon 50mm 1.8 Pancake lens. - Foto's zijn onderde,https://images.marktplaats.com/api/v1/listing-mp-p/images/a5/a52876f0-e5a2-4de2-a48d-3d7c0c19ec6d?rule=ecg_mp_eps$_82.jpg,https://link.marktplaats.nl/m2221401381,52.656950335724,4.8233568877883,0.0,Ophalen,Vandaag,Ophalen,Jordin
m2221415402,Nikon F55 analoge spiegelreflexcamera(body),Nikon f55 analoge spiegelreflexcamera(body),https://images.marktplaats.com/api/v1/listing-mp-p/images/74/74a02feb-a55c-4d7d-9d23-c68b3b554eb1?rule=ecg_mp_eps$_82.jpg,https://link.marktplaats.nl/m2221415402,52.504771232079,5.4858205399703,30.0,Verzenden,Vandaag,Verzenden,henk.hilbrands
m2221416327,Canon EOS 5000 met batterijpack en 38-76mm lens Werkt prima,Canon eos 5000 met batterijpack en 38-76mm lens werkt prima en ook lens,https://images.marktplaats.com/api/v1/listing-mp-p/images/d6/d6c9592d-5d76-42f4-926a-d18d4cb1fffe?rule=ecg_mp_eps$_82.jpg,https://link.marktplaats.nl/m2221416327,52.504771232079,5.4858205399703,45.0,Verzenden,Vandaag,Verzenden,henk.hilbrands
m2221426207,Canon prima junior met 35mm lens Werkt op 2 pennlight batter,Canon prima junior met 35mm lens werkt op 2 pennlight batterijen en flits is ook in goede staat,https://images.marktplaats.com/api/v1/listing-mp-p/images/b0/b06717a5-f62b-43fb-bd40-169a6d97eef9?rule=ecg_mp_eps$_82.jpg,https://link.marktplaats.nl/m2221426207,52.504771232079,5.4858205399703,35.0,Verzenden,Vandaag,Verzenden,henk.hilbrands
m2221400455,Canon AE-1 Program - Canon MA -Canon 50mm 1.4.,- canon ae-1 program camera. - Nieuwe batt. - Canon ma motordrive. (Nieuwstaat). - 6 X nieuwe batt. - Canon fd 50mm 1.4 Lichtsterk,https://images.marktplaats.com/api/v1/listing-mp-p/images/7e/7e813c08-39f5-4cfb-9a16-bfec097f31a5?rule=ecg_mp_eps$_82.jpg,https://link.marktplaats.nl/m2221400455,52.656950335724,4.8233568877883,0.0,Ophalen,Vandaag,Ophalen,Jordin
m2221411703,Canon EOS 500n met 3 Canon lenzen,Ophalen in amsterdam: canon eos 500n met 3 canon lenzen: - 50mm - ⁠28-80mm zoom - ⁠80-200mm inclusief tas en nieuwe batterijen. In,https://images.marktplaats.com/api/v1/listing-mp-p/images/66/6646367a-a7c3-4671-a03c-8c71efb2d70d?rule=ecg_mp_eps$_82.jpg,https://link.marktplaats.nl/m2221411703,52.349570288612,4.9037120418394,200.0,Ophalen,Vandaag,Ophalen,Hoppa!
m2221412798,Canon eos 5000 body,Canon eos 5000 body,https://images.marktplaats.com/api/v1/listing-mp-p/images/b9/b906af42-87e4-4a60-be30-ce1578f714fc?rule=ecg_mp_eps$_82.jpg,https://link.marktplaats.nl/m2221412798,52.504771232079,5.4858205399703,30.0,Verzenden,Vandaag,Verzenden,henk.hilbrands
m2221410927,Canon ixus met canon zoomlens Werkt met batterij en filminle,Canon ixus met canon zoomlens werkt met batterij en filminleg aan onderzijde,https://images.marktplaats.com/api/v1/listing-mp-p/images/e5/e5e6a3ad-c47e-4106-81a5-920c41ba68c3?rule=ecg_mp_eps$_82.jpg,https://link.marktplaats.nl/m2221410927,52.504771232079,5.4858205399703,30.0,Verzenden,Vandaag,Verzenden,henk.hilbrands
m2221412320,Canon eos 500N body dus zonder lenzen,Canon eos 500n body dus zonder lenzen,https://images.marktplaats.com/api/v1/listing-mp-p/images/00/009fe984-95c9-43a1-a26b-186571853f20?rule=ecg_mp_eps$_82.jpg,https://link.marktplaats.nl/m2221412320,52.504771232079,5.4858205399703,30.0,Verzenden,Vandaag,Verzenden,henk.hilbrands
m2221411570,Analoge spiegelreflexcamera Canon eos 30 eye control,"Canon eos 30 voorzien van een canon batterypack bp-300, originele canon draagriem en canon objectief ef 50mm f/1.8 Ii met originel",https://images.marktplaats.com/api/v1/listing-mp-p/images/49/49813faa-f418-4ce0-9b18-ac74e11cd687?rule=ecg_mp_eps$_82.jpg,https://link.marktplaats.nl/m2221411570,51.823873971744,4.6480040286066,0.0,Ophalen of Verzenden,Vandaag,Ophalen of Verzenden,Albert
m2221386224,Hasselblad 350mm 5.6 CF T* NieuwStaat  1 Jaar Garantie,"De hasselblad 350mm f/6.6 Cf t* is een prestatiegerichte telefotolens, perfect voor landschaps- en portretfotografie. Met zijn car",https://images.marktplaats.com/api/v1/listing-mp-p/images/94/940cfc60-329b-48fe-865e-015f558bd471?rule=ecg_mp_eps$_82.jpg,https://link.marktplaats.nl/m2221386224,52.376186980108,4.8959616321988,795.0,Ophalen of Verzenden,Vandaag,Ophalen of Verzenden,Profotica
a1092126582,SECONDHANDCAMERA.NL gevraagd Leica Nikon Contax Hasselblad,Secondhandcamera.nl is gespecialiseerd in mooie occasion fotoapparatuur. Dat betreft de merken: leica ( o.a. Leica m2 m3 m4 m5 m6 ,https://mp.images.icas.io/api/v1/a6519ad0/images/3f/3fddcdfe-3314-4a3f-b1b9-8ad18ee45530?rule=eps_82.JPG,https://link.marktplaats.nl/a1092126582,52.33891677856445,4.917953968048096,0.0,Ophalen of Verzenden,Vandaag,Ophalen of Verzenden,Secondhandcamera
m2221376796,Hasselblad 203 FE 80mm f2.8 NieuwStaat  1 Jaar Garantie,"De hasselblad 203 fe 80mm + f2.8 Is een hoogwaardige mediumformaat camera, ontworpen voor fotografen die graag met film werken. De",https://images.marktplaats.com/api/v1/listing-mp-p/images/ea/ea76483b-24dd-4e49-967b-28c0b11cb750?rule=ecg_mp_eps$_82.jpg,https://link.marktplaats.nl/m2221376796,52.376186980108,4.8959616321988,5490.0,Ophalen of Verzenden,Vandaag,Ophalen of Verzenden,Profotica
m2221388927,Asahi Pentax Opjectieven camera gebruiksaanwijzing,Het boekje heeft 34 bladzijden en het gewicht is 23 gram doe een mooi bod ex verz of halen mvgr henk b,https://images.marktplaats.com/api/v1/listing-mp-p/images/65/657129fa-9017-4d8d-a635-9343974d69f5?rule=ecg_mp_eps$_82.jpg,https://link.marktplaats.nl/m2221388927,52.678292465632,4.8498024643326,0.0,Ophalen of Verzenden,Vandaag,Ophalen of Verzenden,Henk
m2221387807,Asahi Pentax MV 1 camera gebruiksaanwijzing,Het boekje heeft 36 bladzijden het gewicht is 36 gram doe een mooi bod ex verz of halen mvgr henk b,https://images.marktplaats.com/api/v1/listing-mp-p/images/cc/cc0a304d-82e2-4f7f-8a5b-0dc1c6871be9?rule=ecg_mp_eps$_82.jpg,https://link.marktplaats.nl/m2221387807,52.678292465632,4.8498024643326,0.0,Ophalen of Verzenden,Vandaag,Ophalen of Verzenden,Henk
m2221388927,Asahi Pentax Opjectieven camera gebruiksaanwijzing,Het boekje heeft 34 bladzijden en het gewicht is 23 gram doe een mooi bod ex verz of halen mvgr henk b,https://images.marktplaats.com/api/v1/listing-mp-p/images/65/657129fa-9017-4d8d-a635-9343974d69f5?rule=ecg_mp_eps$_82.jpg,https://link.marktplaats.nl/m2221388927,52.678292465632,4.8498024643326,0.0,Ophalen of Verzenden,Vandaag,Ophalen of Verzenden,Henk
m2221387807,Asahi Pentax MV 1 camera gebruiksaanwijzing,Het boekje heeft 36 bladzijden het gewicht is 36 gram doe een mooi bod ex verz of halen mvgr henk b,https://images.marktplaats.com/api/v1/listing-mp-p/images/cc/cc0a304d-82e2-4f7f-8a5b-0dc1c6871be9?rule=ecg_mp_eps$_82.jpg,https://link.marktplaats.nl/m2221387807,52.678292465632,4.8498024643326,0.0,Ophalen of Verzenden,Vandaag,Ophalen of Verzenden,Henk
m2221394986,Rolleicord iib,"Voor verzamelaars. De sluitertijden van 1/5s, 1/2s en 1s zijn niet nauwkeurig. Niet verder getest.",https://images.marktplaats.com/api/v1/listing-mp-p/images/a2/a26d1633-b057-4eef-a28a-3a55a727e60f?rule=ecg_mp_eps$_82.jpg,https://link.marktplaats.nl/m2221394986,52.326090132122,4.8749669630442,35.0,Ophalen,Vandaag,Ophalen,el
m2221398944,"Rollei 35 T in prachtige werkende staat, met tasje, rolletje","Ja, wat moet je vertellen over zo'n mooie camera, waar de liefhebber alles al over weet. Doe een redelijk bod en vraag niet na",https://images.marktplaats.com/api/v1/listing-mp-p/images/87/876d30b4-743d-4a07-9e5c-8d1a3f73a479?rule=ecg_mp_eps$_82.jpg,https://link.marktplaats.nl/m2221398944,51.808186994665,5.2369244822127,0.0,Ophalen of Verzenden,Vandaag,Ophalen of Verzenden,Frans
m2221395523,Nikon F-801 + AF Nikkor 35-70 mm F 3.3-4.5,"Nikon f-801+ af nikkor 35-70 mm f 3.3-4.5 + Riem + lensdop bijzonderheden professionele analoge camera, gaat dus een filmrolletje ",https://images.marktplaats.com/api/v1/listing-mp-p/images/b8/b8e8691a-08a6-43fd-9823-4f5d41730c32?rule=ecg_mp_eps$_82.jpg,https://link.marktplaats.nl/m2221395523,51.352144252976,5.4597220970599,95.0,Ophalen of Verzenden,Vandaag,Ophalen of Verzenden,Foto Video Valkenswaard
m2221398301,Nikon F65 + AF Nikkor 28-80 mm F 3.3-5.6 G,"Nikon f65 + af nikkor 28-80 mm f 3.3-5.6 G + riem + lensdop bijzonderheden analoge foto camera, gaat dus een filmrolletje in. Werk",https://images.marktplaats.com/api/v1/listing-mp-p/images/7d/7d7beceb-d764-43af-bcc4-deeaebca769b?rule=ecg_mp_eps$_82.jpg,https://link.marktplaats.nl/m2221398301,51.352144252976,5.4597220970599,75.0,Ophalen of Verzenden,Vandaag,Ophalen of Verzenden,Foto Video Valkenswaard
m2221389162,"Exakta varex 2b + 50mm 2.0 , 135mm 2.0 , 240mm 4.5  boxed","De exakta varex 11b is een hoogwaardige analoge camera compleet met een set van drie lenzen (50mm 2.0, 135Mm 2.0, 240Mm 4.5) Voor ",https://images.marktplaats.com/api/v1/listing-mp-p/images/4a/4a3f888d-2676-4d80-9fd4-862ff7dac455?rule=ecg_mp_eps$_82.jpg,https://link.marktplaats.nl/m2221389162,52.376186980108,4.8959616321988,675.0,Ophalen of Verzenden,Vandaag,Ophalen of Verzenden,Profotica
m2221357187,Praktica camera met Soligor lenzen,"Ik verkoop deze praktica camera met alle lenzen van soligor erbij, die op de foto's staan. Eventueel op te halen in hellevoets",https://images.marktplaats.com/api/v1/listing-mp-p/images/9e/9ebc4a7c-2a95-4c76-b6ba-2c96a17d915e?rule=ecg_mp_eps$_82.jpg,https://link.marktplaats.nl/m2221357187,51.999218466359,4.1664625910487,0.0,Ophalen of Verzenden,Vandaag,Ophalen of Verzenden,Conchita
m2221364541,Hasselblad Camerahoesje,"Bescherm je hasselblad-camera met een leren hoes. Ontworpen voor dagelijks gebruik, biedt deze hoes betrouwbare bescherming tegen ",https://images.marktplaats.com/api/v1/listing-mp-p/images/50/503ce8b5-0aec-4261-9195-d3977d323c7b?rule=ecg_mp_eps$_82.jpg,https://link.marktplaats.nl/m2221364541,51.928067785084,4.4969008064735,40.0,Ophalen of Verzenden,Vandaag,Ophalen of Verzenden,Hector
m2221365837,Asahi Pentax Takumar Spotmatic Boeken brochures handleiding,Twee boeken en een aantal brochures en handleidingen van asahi pentax. Allemaal uit het spotmatic tijdperk (ca 1964 ... 1977) The ,https://images.marktplaats.com/api/v1/listing-mp-p/images/b5/b598b622-1c5d-4615-a2b6-1ddb06083cdb?rule=ecg_mp_eps$_82.jpg,https://link.marktplaats.nl/m2221365837,51.418674983935,5.4409164012942,0.0,Ophalen of Verzenden,Vandaag,Ophalen of Verzenden,Olaf
m2221355281,Mamiya ZE Quartz spiegelreflexcamera,Nette spiegelreflexcamera met osawa 35-70mm macrolens en osawa 80-205mm macrolens als extra. Inclusief tas en sunpak auto 431 flit,https://images.marktplaats.com/api/v1/listing-mp-p/images/33/339fd612-279a-455b-a78c-bcb50048e8d5?rule=ecg_mp_eps$_82.jpg,https://link.marktplaats.nl/m2221355281,52.20829036416,4.9220177413447,60.0,Ophalen,Vandaag,Ophalen,M.v.Putten
m2221365837,Asahi Pentax Takumar Spotmatic Boeken brochures handleiding,Twee boeken en een aantal brochures en handleidingen van asahi pentax. Allemaal uit het spotmatic tijdperk (ca 1964 ... 1977) The ,https://images.marktplaats.com/api/v1/listing-mp-p/images/b5/b598b622-1c5d-4615-a2b6-1ddb06083cdb?rule=ecg_mp_eps$_82.jpg,https://link.marktplaats.nl/m2221365837,51.418674983935,5.4409164012942,0.0,Ophalen of Verzenden,Vandaag,Ophalen of Verzenden,Olaf
m2221356090,Nikon D90 body,"Nikon d90 body, spiegel blijft hangen. Met batterij, snellader en nieuwe draagriem",https://images.marktplaats.com/api/v1/listing-mp-p/images/c6/c6e31c40-3d60-463b-851b-40844b6ead79?rule=ecg_mp_eps$_82.jpg,https://link.marktplaats.nl/m2221356090,53.198040945856,5.8141337697578,25.0,Ophalen of Verzenden,Vandaag,Ophalen of Verzenden,Catharines
m2221365837,Asahi Pentax Takumar Spotmatic Boeken brochures handleiding,Twee boeken en een aantal brochures en handleidingen van asahi pentax. Allemaal uit het spotmatic tijdperk (ca 1964 ... 1977) The ,https://images.marktplaats.com/api/v1/listing-mp-p/images/b5/b598b622-1c5d-4615-a2b6-1ddb06083cdb?rule=ecg_mp_eps$_82.jpg,https://link.marktplaats.nl/m2221365837,51.418674983935,5.4409164012942,0.0,Ophalen of Verzenden,Vandaag,Ophalen of Verzenden,Olaf
m2221349344,Asahi Pentax winders + onderdelen,"Heb nog een tweetal pentax winder liggen, helaas defect! Daarnaast nog een aantal losse onderdelen: - een lichtmeter (niet getest)",https://images.marktplaats.com/api/v1/listing-mp-p/images/08/08443145-bc1b-425a-8a8e-5caf04643cd3?rule=ecg_mp_eps$_82.jpg,https://link.marktplaats.nl/m2221349344,52.489479151583,6.0982856824883,10.0,Ophalen of Verzenden,Vandaag,Ophalen of Verzenden,Gooss
m2221299240,Analoge Camera Huren Zenit Canon Yashica Olympus,Camera kapot? Gewoon eens uitproberen? Huur bij ons een: zenit 12 xp met helios lens canon ae-1 yashica electro 35 viewfinder olym,https://images.marktplaats.com/api/v1/listing-mp-p/images/3c/3c798cd2-b92a-4537-9d36-0da3ff58a4f0?rule=ecg_mp_eps$_82.jpg,https://link.marktplaats.nl/m2221299240,51.916823808119,4.4521051164617,0.0,Ophalen of Verzenden,Vandaag,Ophalen of Verzenden,Hofland
m2221299387,Yashica T5 zilver,Volledig werkende yashica t5 / t4 super. Met de welbekende waist level viewfinder en uiteraard scherpe lens. Hier en daar lichte g,https://images.marktplaats.com/api/v1/listing-mp-p/images/6c/6c38d8fe-b304-4dd4-b421-c52d3f9dd9d8?rule=ecg_mp_eps$_82.jpg,https://link.marktplaats.nl/m2221299387,52.078251350174,5.1145959411629,400.0,Verzenden,Vandaag,Verzenden,Benjamin
m2221349344,Asahi Pentax winders + onderdelen,"Heb nog een tweetal pentax winder liggen, helaas defect! Daarnaast nog een aantal losse onderdelen: - een lichtmeter (niet getest)",https://images.marktplaats.com/api/v1/listing-mp-p/images/08/08443145-bc1b-425a-8a8e-5caf04643cd3?rule=ecg_mp_eps$_82.jpg,https://link.marktplaats.nl/m2221349344,52.489479151583,6.0982856824883,10.0,Ophalen of Verzenden,Vandaag,Ophalen of Verzenden,Gooss
m2221300080,Vintage Canon 300 TL met heel veel toebehoren veel extra len,Vintage canon 300 tl met heel veel toebehoren veel extra lenzen,https://images.marktplaats.com/api/v1/listing-mp-p/images/5e/5ee3d492-ff2a-457a-9d7e-880d644d6513?rule=ecg_mp_eps$_82.jpg,https://link.marktplaats.nl/m2221300080,51.282089284985,5.3056885390441,170.0,Ophalen of Verzenden,Vandaag,Ophalen of Verzenden,Joske
m2221347129,Canon 1000F met tas en extra zoomlens,Ophalen in amsterdam west,https://images.marktplaats.com/api/v1/listing-mp-p/images/36/36fe0af1-3bad-4248-aa27-e543155d8520?rule=ecg_mp_eps$_82.jpg,https://link.marktplaats.nl/m2221347129,52.383470695598,4.8018626578114,100.0,Ophalen,Vandaag,Ophalen,Pieter Vermaas
m2221299240,Analoge Camera Huren Zenit Canon Yashica Olympus,Camera kapot? Gewoon eens uitproberen? Huur bij ons een: zenit 12 xp met helios lens canon ae-1 yashica electro 35 viewfinder olym,https://images.marktplaats.com/api/v1/listing-mp-p/images/3c/3c798cd2-b92a-4537-9d36-0da3ff58a4f0?rule=ecg_mp_eps$_82.jpg,https://link.marktplaats.nl/m2221299240,51.916823808119,4.4521051164617,0.0,Ophalen of Verzenden,Vandaag,Ophalen of Verzenden,Hofland
m2221301522,"Canon EF-M (met EF/EOS-vatting), wordt weinig aangeboden!",In verband met verkleining van mijn verzameling foto-apparatuur bied ik deze canon ef-m analoge spiegelreflexcamera aan. Een camer,https://images.marktplaats.com/api/v1/listing-mp-p/images/1a/1afa5af7-2c2d-4dbb-b634-09ce3f7fa7aa?rule=ecg_mp_eps$_82.jpg,https://link.marktplaats.nl/m2221301522,53.184410606566,6.5520465455871,45.0,Ophalen of Verzenden,Vandaag,Ophalen of Verzenden,Ruthger Schoonderbeek
m2221299240,Analoge Camera Huren Zenit Canon Yashica Olympus,Camera kapot? Gewoon eens uitproberen? Huur bij ons een: zenit 12 xp met helios lens canon ae-1 yashica electro 35 viewfinder olym,https://images.marktplaats.com/api/v1/listing-mp-p/images/3c/3c798cd2-b92a-4537-9d36-0da3ff58a4f0?rule=ecg_mp_eps$_82.jpg,https://link.marktplaats.nl/m2221299240,51.916823808119,4.4521051164617,0.0,Ophalen of Verzenden,Vandaag,Ophalen of Verzenden,Hofland
m2221249789,Minolta XG 9 compleet met lenzen en werkend.,In nog mooie werkende staat: -minolta xg9 -minolta rokkor 50 mm 1.7 Standaard lens -minolta zoom 35-70mm 3.5 Standaard lens met zo,https://images.marktplaats.com/api/v1/listing-mp-p/images/34/3472b946-d15a-406e-ae78-d8e8e61ba2ea?rule=ecg_mp_eps$_82.jpg,https://link.marktplaats.nl/m2221249789,52.262277047843,6.1572651145096,0.0,Ophalen of Verzenden,Vandaag,Ophalen of Verzenden,wouter
m2195527482,Pentax Asahi SP 1000,"Gebruikt , maar nog goed .",https://images.marktplaats.com/api/v1/listing-mp-p/images/da/da27320c-7edb-40fd-beae-caf8b76ccca0?rule=ecg_mp_eps$_82.jpg,https://link.marktplaats.nl/m2195527482,52.274422825023,5.1346954683645,40.0,Ophalen of Verzenden,Vandaag,Ophalen of Verzenden,Jacoba
m2195527482,Pentax Asahi SP 1000,"Gebruikt , maar nog goed .",https://images.marktplaats.com/api/v1/listing-mp-p/images/da/da27320c-7edb-40fd-beae-caf8b76ccca0?rule=ecg_mp_eps$_82.jpg,https://link.marktplaats.nl/m2195527482,52.274422825023,5.1346954683645,40.0,Ophalen of Verzenden,Vandaag,Ophalen of Verzenden,Jacoba
m2221278863,Pentax Espio 90 MC,Vond dit toestel tijdens mijn opruimronde. Weet echt niet of deze het nog doet. Heb niet de juiste batterij om dit uit te proberen,https://images.marktplaats.com/api/v1/listing-mp-p/images/2d/2d62135d-a207-4155-9ff3-effad2c24e28?rule=ecg_mp_eps$_82.jpg,https://link.marktplaats.nl/m2221278863,51.959538553928,5.9703249572504,0.0,Verzenden,Vandaag,Verzenden,Grefen
m2181746667,"Fotocamera CANON T50 met 35-70 mm lens , 277T flitser en tas","Vintage fotocamera uit de jaren 80. De camera ziet er mooi uit en de lens, voorzien van lenskap, is als nieuw.  (Het afsluitklepje",https://images.marktplaats.com/api/v1/listing-mp-p/images/df/df587860-c546-400a-8e92-f93e86f1eccb?rule=ecg_mp_eps$_82.jpg,https://link.marktplaats.nl/m2181746667,52.007696186906,5.0426940471799,50.0,Ophalen,Vandaag,Ophalen,robenwil
m2221266171,"Nikon L35AF filmdeur, zeer goede staat, licht gebruikt",Nikon l35af filmdeur van de eerste generatie. Deze is in zeer goede staat en de filmdeur heeft bijna geen plekjes waar de verf weg,https://images.marktplaats.com/api/v1/listing-mp-p/images/e2/e269885d-2ec1-44ba-953d-b56bda2b0b92?rule=ecg_mp_eps$_82.jpg,https://link.marktplaats.nl/m2221266171,51.32835670928,3.486533164592,10.0,Ophalen of Verzenden,Vandaag,Ophalen of Verzenden,Hannes
m2221266772,"Nikon L35AF defect voor onderdelen, wel grotendeels compleet","Nikon l35af voor onderdelen, de camera is defect maar wel grotendeels compleet met veel goede onderdelen. Als er batterijen in gep",https://images.marktplaats.com/api/v1/listing-mp-p/images/c5/c5cb0a80-c577-41f6-8e04-3550a0348bbd?rule=ecg_mp_eps$_82.jpg,https://link.marktplaats.nl/m2221266772,51.32835670928,3.486533164592,15.0,Ophalen of Verzenden,Vandaag,Ophalen of Verzenden,Hannes
m2221242554,Fotocamera Fujica ST605. Compleet in koffer met div. lenzen,Fotocamera fujica st605. Analoog. Compleet in koffer met diverse lenzen en andere toebehoren. Vaste prijs 80 euro.,https://images.marktplaats.com/api/v1/listing-mp-p/images/80/80872cd3-51c5-4a5c-8b91-e1cfb21f3e77?rule=ecg_mp_eps$_82.jpg,https://link.marktplaats.nl/m2221242554,51.688917247013,5.3278268460401,80.0,Ophalen,Vandaag,Ophalen,M_
m2221229698,"Pentax R105, beschermhoesje",De pentax zoom 105-r is een van de beste zoom point-and-shoot 35mm filmcamera's van de vroege jaren 90. Het is een zeer geavan,https://images.marktplaats.com/api/v1/listing-mp-p/images/c6/c69a1033-2df3-4fd8-a59b-09a0c26252b3?rule=ecg_mp_eps$_82.jpg,https://link.marktplaats.nl/m2221229698,52.980522419758,6.6464364919479,50.0,Ophalen of Verzenden,Vandaag,Ophalen of Verzenden,MStephenD
m2221209032,Yashica kleinbeeldcamera,Yashica kleinbeeldcamera,https://images.marktplaats.com/api/v1/listing-mp-p/images/35/35b69e49-0df3-4054-b92a-d54a42db0f5d?rule=ecg_mp_eps$_82.jpg,https://link.marktplaats.nl/m2221209032,52.192462557312,5.2939221628754,20.0,Ophalen of Verzenden,Vandaag,Ophalen of Verzenden,calis
m2221225199,Pentax,Camera,https://images.marktplaats.com/api/v1/listing-mp-p/images/bc/bccbc799-626a-4743-89e9-a87063091766?rule=ecg_mp_eps$_82.jpg,https://link.marktplaats.nl/m2221225199,52.392318735708,4.6381173884459,50.0,Ophalen of Verzenden,Vandaag,Ophalen of Verzenden,Bob R.
m2221222999,Rollei XF35,Rollei xf35 de camera werkt naar behoren. Bod v.a. 30€ verzendkosten koper,https://images.marktplaats.com/api/v1/listing-mp-p/images/e6/e6643987-27b6-4f8c-80b7-b4f193e0d61c?rule=ecg_mp_eps$_82.jpg,https://link.marktplaats.nl/m2221222999,51.228755135315,3.7938719449666,30.0,Ophalen of Verzenden,Vandaag,Ophalen of Verzenden,willem
m2221227989,Nikon set,"Gebruikte nikon set . Camera met duidelijke gebruikssporen. Werkt goed , belichtingsautomaat goed, alleen de zoeker heeft wat stof",https://images.marktplaats.com/api/v1/listing-mp-p/images/ea/eab87976-1eb5-4b2e-b5c7-6ab61f8bc187?rule=ecg_mp_eps$_82.jpg,https://link.marktplaats.nl/m2221227989,51.572622867289,5.5970805454029,0.0,Ophalen of Verzenden,Vandaag,Ophalen of Verzenden,Ria en Henk
m2221225660,Canon T50 camera met Sigma zoom lens 35-150mm,Klein defekt aan batterij deksel (slotje is stuk) lens is zo goed als nieuw. Voor vragen stuur gerust een bericht. Ophalen of verz,https://images.marktplaats.com/api/v1/listing-mp-p/images/a1/a1209ad5-e716-4c19-bf63-8b8f5e4fca95?rule=ecg_mp_eps$_82.jpg,https://link.marktplaats.nl/m2221225660,53.072238717705,6.0054741721863,0.0,Ophalen of Verzenden,Vandaag,Ophalen of Verzenden,marktmiep
m2221223201,Zenith E camera,"Selling zenith e analog camera with the lens, made in ussr. Has original leather case.",https://images.marktplaats.com/api/v1/listing-mp-p/images/22/226e6919-697c-4a6b-89e4-2a125b5fe850?rule=ecg_mp_eps$_82.jpg,https://link.marktplaats.nl/m2221223201,51.9803235345,5.6569911694188,7.5,Ophalen of Verzenden,Vandaag,Ophalen of Verzenden,Ilya Bushuev
m2221197427,PENTAX ZOOM 70 X MET HOESJE,Pentax zoom 70 x met hoesje en gebruiksaanwijzing alleen serieuse biedingen,https://images.marktplaats.com/api/v1/listing-mp-p/images/7f/7f45a657-7f4e-4632-b5cc-bf2c56305a31?rule=ecg_mp_eps$_82.jpg,https://link.marktplaats.nl/m2221197427,51.476145697657,4.2781910821926,0.0,Ophalen of Verzenden,Vandaag,Ophalen of Verzenden,John
m2221198369,Canon eos 350D,"Canon eos 350d met 18-55 lens incl lader(blokjes), cf kaartje en camera tas.",https://images.marktplaats.com/api/v1/listing-mp-p/images/da/da841c3a-c440-40d8-9eb7-bef85a2dd554?rule=ecg_mp_eps$_82.jpg,https://link.marktplaats.nl/m2221198369,51.926287893193,5.7101063806656,60.0,Ophalen of Verzenden,Vandaag,Ophalen of Verzenden,Rosa
m2221204298,Zenit-EM Spiegelreflex camera,"Zenit-em spiegelreflex camera met 3 extra lenzen (groothoek, tele en fisheye, merk kenlock en toebehoren (ringen etc.)",https://images.marktplaats.com/api/v1/listing-mp-p/images/75/75033ba4-17b4-4fcc-bdee-cb2e9f817027?rule=ecg_mp_eps$_82.jpg,https://link.marktplaats.nl/m2221204298,52.192462557312,5.2939221628754,95.0,Ophalen of Verzenden,Vandaag,Ophalen of Verzenden,calis
m2221184578,Pentax K2 camera met lenzen en flits module,"Ik verkoop deze camera omdat ik 2 nogal vergelijkbare analoge camera’s heb. De camera werkt en is in vrij goede staat, alleen wat ",https://images.marktplaats.com/api/v1/listing-mp-p/images/1d/1d771cc1-fcbb-4cf6-ad61-3132585b6af1?rule=ecg_mp_eps$_82.jpg,https://link.marktplaats.nl/m2221184578,52.176927402227,4.5021279425208,160.0,Ophalen of Verzenden,Vandaag,Ophalen of Verzenden,Oliver
m2221184578,Pentax K2 camera met lenzen en flits module,"Ik verkoop deze camera omdat ik 2 nogal vergelijkbare analoge camera’s heb. De camera werkt en is in vrij goede staat, alleen wat ",https://images.marktplaats.com/api/v1/listing-mp-p/images/1d/1d771cc1-fcbb-4cf6-ad61-3132585b6af1?rule=ecg_mp_eps$_82.jpg,https://link.marktplaats.nl/m2221184578,52.176927402227,4.5021279425208,160.0,Ophalen of Verzenden,Vandaag,Ophalen of Verzenden,Oliver
m2221188600,Nikon FE2 + 28mm f2.8Ai,Zeer mooie en 100% goed functionerende nikon fe2 plus de 28/2.8Ai lens die eveneens in een zeer goede staat verkeerd! De gebruiker,https://images.marktplaats.com/api/v1/listing-mp-p/images/04/04fcb8df-17c5-48c7-9a56-c697f9bf2a24?rule=ecg_mp_eps$_82.jpg,https://link.marktplaats.nl/m2221188600,50.947049434628,5.9661883430022,350.0,Verzenden,Vandaag,Verzenden,Marc
m2221175691,Canon vintage 35mm camera,"Canon vintage 35mm camera, type prima super 90 wide, 28-90mm zoom. Gebruikt, maar niet erg intensief. In goede staat. Incl. Nieuwe",https://images.marktplaats.com/api/v1/listing-mp-p/images/a3/a301deec-04b6-4422-be94-7ffa097578dd?rule=ecg_mp_eps$_82.jpg,https://link.marktplaats.nl/m2221175691,50.875226058624,5.9635059810692,50.0,Ophalen of Verzenden,Vandaag,Ophalen of Verzenden,marvenver
m2221167288,Canon EOS 30 battery grip + EF 50mm f/1.8 STM,Volledig werkende eos 30 analoge camera met battery pack bp-300 en zo goed als nieuwe canon ef 50mm f/1.8 Stm objectief. Super leu,https://images.marktplaats.com/api/v1/listing-mp-p/images/4c/4cce7cb6-4771-4092-bd4a-f0d9e13f5aad?rule=ecg_mp_eps$_82.jpg,https://link.marktplaats.nl/m2221167288,52.22620753559,4.4977722852282,115.0,Ophalen of Verzenden,Vandaag,Ophalen of Verzenden,Jord
m2221143942,Pentax MZ 50 analoge camera incl.  100-300 lens en flitser,"Retro camera, uit het analoge tijdperk",https://images.marktplaats.com/api/v1/listing-mp-p/images/d4/d408adf4-a8b4-46c3-9063-28805c926775?rule=ecg_mp_eps$_82.jpg,https://link.marktplaats.nl/m2221143942,53.313084154999,6.0039120937469,100.0,Verzenden,Vandaag,Verzenden,R.G. Folkers
m2221160313,Pentax Espio 140 + twee nieuwe batterijen,In zeer goede staat verkerende en zeer goed werkende pentax zoom 105-r analoge camera en één nieuwe batterij. A.u.b. Bieden naar w,https://images.marktplaats.com/api/v1/listing-mp-p/images/3a/3a6c71fb-154c-403b-af10-a59393509141?rule=ecg_mp_eps$_82.jpg,https://link.marktplaats.nl/m2221160313,52.357118226932,4.652079391018,54.99,Ophalen of Verzenden,Vandaag,Ophalen of Verzenden,The Audio Sensei
m2221157873,Pentax Zoom 105-R analoge camera + één nieuwe batterij,In zeer goede staat verkerende en zeer goed werkende pentax zoom 105-r analoge camera en één nieuwe batterij.  A.u.b. Bieden naar ,https://images.marktplaats.com/api/v1/listing-mp-p/images/a8/a8f83729-3b78-4932-90a4-49a33a3a796b?rule=ecg_mp_eps$_82.jpg,https://link.marktplaats.nl/m2221157873,52.357118226932,4.652079391018,19.99,Ophalen of Verzenden,Vandaag,Ophalen of Verzenden,The Audio Sensei
m2221137447,Rolleicord 75mm,Vintage rolleicord dbgm medium format camera – 75mm lens – perfect for collectors & film photography enthusiasts capture the e,https://images.marktplaats.com/api/v1/listing-mp-p/images/91/919b8020-7e35-477a-b0cd-5aab48990600?rule=ecg_mp_eps$_82.jpg,https://link.marktplaats.nl/m2221137447,52.365480141738,4.8975337113385,550.0,Verzenden,Vandaag,Verzenden,Alba Teixidor Mas
m2221144934,Nikon camera,Vintage !!,https://images.marktplaats.com/api/v1/listing-mp-p/images/73/737a9d01-51e5-4bbb-9bab-c32cb47bf3ec?rule=ecg_mp_eps$_82.jpg,https://link.marktplaats.nl/m2221144934,52.933770062151,4.7672644171393,25.0,Ophalen of Verzenden,Vandaag,Ophalen of Verzenden,Gerritje
m2221155693,Body Canon EOS 1000F Analoge Spiegelreflexcamera,Body canon eos 1000f analoge spiegelreflexcamera. Nostalgisch fotograferen met rolletje…voor de echte liefhebber. Voor mooie nosta,https://images.marktplaats.com/api/v1/listing-mp-p/images/79/79c907c1-66c2-46ad-854e-be1d9308ca2c?rule=ecg_mp_eps$_82.jpg,https://link.marktplaats.nl/m2221155693,51.362077323986,5.3082065530647,0.0,Ophalen,Vandaag,Ophalen,A.J.
m2221126583,Pentax ME Super met 3 lenzen,"Pentax me super, in goede staat. Met 3 lenzen: productcategorie: spiegelreflexcamera merk: pentax typeme-super objectief 1: smc pe",https://images.marktplaats.com/api/v1/listing-mp-p/images/07/07f9da85-87bf-46c6-b293-98af49d60c47?rule=ecg_mp_eps$_82.jpg,https://link.marktplaats.nl/m2221126583,52.220727582528,5.1651284019667,0.0,Ophalen of Verzenden,Vandaag,Ophalen of Verzenden,Ter Burg
m2221115897,camera  top set ambi silette met 4 lenzen,Daar zij  35  50 90 en zeldzame 130 lens met zoeker  alles werkt  prima met mooie tas  met meer spullen,https://images.marktplaats.com/api/v1/listing-mp-p/images/64/64f6554f-9c21-43cd-b06e-34fa47369700?rule=ecg_mp_eps$_82.jpg,https://link.marktplaats.nl/m2221115897,51.822862533592,4.7921135081976,175.0,Ophalen of Verzenden,Vandaag,Ophalen of Verzenden,pieter
m2221126583,Pentax ME Super met 3 lenzen,"Pentax me super, in goede staat. Met 3 lenzen: productcategorie: spiegelreflexcamera merk: pentax typeme-super objectief 1: smc pe",https://images.marktplaats.com/api/v1/listing-mp-p/images/07/07f9da85-87bf-46c6-b293-98af49d60c47?rule=ecg_mp_eps$_82.jpg,https://link.marktplaats.nl/m2221126583,52.220727582528,5.1651284019667,0.0,Ophalen of Verzenden,Vandaag,Ophalen of Verzenden,Ter Burg
m2221114486,rollei sl35 e planar 50mm 1.8,Prima staat,https://images.marktplaats.com/api/v1/listing-mp-p/images/fe/fee29af8-59b4-4b81-9501-be93096e0ddc?rule=ecg_mp_eps$_82.jpg,https://link.marktplaats.nl/m2221114486,50.859393041407,5.6960182817863,75.0,Verzenden,Vandaag,Verzenden,frederik
m2221132108,"Nikon F5 body met 2 achterwanden, nieuwstaat","Aangeboden een in nieuwstaat verkerende nikon f5 camerabody, zonder gebruikssporen. Compleet met de standaard achterwand en origin",https://images.marktplaats.com/api/v1/listing-mp-p/images/af/af0cd6e5-ff1e-476d-a5c3-963921aea35f?rule=ecg_mp_eps$_82.jpg,https://link.marktplaats.nl/m2221132108,51.908238100401,5.7424913816253,0.0,Verzenden,Vandaag,Verzenden,JV
m2221088396,Hasselblad 500 c/m middenformaatcamera,Hasselblad camera. Ontzettend veel plezier van gehad. Eerlijkheid gebied dat ik hem al wel een aantal jaar niet meer gebruik. Hij ,https://images.marktplaats.com/api/v1/listing-mp-p/images/f9/f9b2b90e-c6e7-4681-9576-8a9df66dd214?rule=ecg_mp_eps$_82.jpg,https://link.marktplaats.nl/m2221088396,51.682304168494,5.3144049256764,0.0,Ophalen of Verzenden,Vandaag,Ophalen of Verzenden,Josephine
m2221091776,Pentax 6x7 MLU met 105/2.4 en 200/4 en 2x converter,Pentax 6x7 mlu-set in supermooie staat  - pentax 6x7 mlu-body in bijna mint conditie  - super-multi-coated takumar 6x7 105/2.4  - ,https://images.marktplaats.com/api/v1/listing-mp-p/images/6a/6adff49c-251b-4b20-a979-9abe61240385?rule=ecg_mp_eps$_82.jpg,https://link.marktplaats.nl/m2221091776,52.271971704771,6.8161475083211,0.0,Ophalen of Verzenden,Vandaag,Ophalen of Verzenden,A.G. Blok
m2221107387,Pentax Pino 35,Pentax pina 35 in goede werkende staat. Sluiter en transport werken goed.,https://images.marktplaats.com/api/v1/listing-mp-p/images/c5/c52287c7-aa48-425f-ba7b-55014c5d649f?rule=ecg_mp_eps$_82.jpg,https://link.marktplaats.nl/m2221107387,52.788162164,6.8936707855567,10.0,Ophalen of Verzenden,Vandaag,Ophalen of Verzenden,Gerard
m2221103475,"Nikon, pentax, olympus, praktica enzo. 7 boeken",7 mooie boeken van pentax nikon olympus praktica en andere fotografie boeken.,https://images.marktplaats.com/api/v1/listing-mp-p/images/92/92a25dbc-de41-4968-8834-ac69279dc1a8?rule=ecg_mp_eps$_82.jpg,https://link.marktplaats.nl/m2221103475,52.788162164,6.8936707855567,15.0,Ophalen of Verzenden,Vandaag,Ophalen of Verzenden,Gerard
m2221088963,Pentax zoom 90 camera,Pentax zoom 90 camera met auto focus inclusief opbergtasje en handleiding !,https://images.marktplaats.com/api/v1/listing-mp-p/images/36/36537a4f-9ac2-467e-a7d4-96623389d656?rule=ecg_mp_eps$_82.jpg,https://link.marktplaats.nl/m2221088963,51.654101988721,4.8396546568981,15.0,Ophalen,Vandaag,Ophalen,Riem11
m2221103475,"Nikon, pentax, olympus, praktica enzo. 7 boeken",7 mooie boeken van pentax nikon olympus praktica en andere fotografie boeken.,https://images.marktplaats.com/api/v1/listing-mp-p/images/92/92a25dbc-de41-4968-8834-ac69279dc1a8?rule=ecg_mp_eps$_82.jpg,https://link.marktplaats.nl/m2221103475,52.788162164,6.8936707855567,15.0,Ophalen of Verzenden,Vandaag,Ophalen of Verzenden,Gerard
m2221059511,Camera’s en lenzen,Prijs is voor alles bij elkaar.,https://images.marktplaats.com/api/v1/listing-mp-p/images/36/36b34adb-c49c-427a-aaa6-e05e4bb4dfd0?rule=ecg_mp_eps$_82.jpg,https://link.marktplaats.nl/m2221059511,51.88192784822,5.4279460390712,100.0,Ophalen of Verzenden,Vandaag,Ophalen of Verzenden,Henk
m2221075051,Mamiya 645 Pro TL - 35mm 45mm 55mm 80mm + Kipon 0.7x booster,Mamiya 645 pro tl - 35mm 45mm 55mm 80mm + kipon 0.7X speedbooster sony ik overweeg om mijn mamiya 645 lenzenset te verkopen omdat ,https://images.marktplaats.com/api/v1/listing-mp-p/images/6d/6d58cd1b-d235-4e33-8fcb-837962219b0c?rule=ecg_mp_eps$_82.jpg,https://link.marktplaats.nl/m2221075051,52.009246893759,4.3594566786595,0.0,Ophalen,Vandaag,Ophalen,Menno
m2221077725,Pentax espio 738S analoge fotografie,"Af te halen in bellingwolde, verzending in overleg.",https://images.marktplaats.com/api/v1/listing-mp-p/images/00/0002d79d-a943-41e7-938f-1c40f89699b6?rule=ecg_mp_eps$_82.jpg,https://link.marktplaats.nl/m2221077725,53.118571887362,7.1665087626848,50.0,Verzenden,Vandaag,Verzenden,SGMA
m2221041983,Canon AE-1 Program  izgst/werkt goed,Canon ae-1 program de program is de verbeterde opvolger van de klassieke ae-1. Naast de automaat met sluitertijdvoorkeuze van de l,https://images.marktplaats.com/api/v1/listing-mp-p/images/d4/d4d78791-ef21-4aa3-8b03-2dd47dfeec89?rule=ecg_mp_eps$_82.jpg,https://link.marktplaats.nl/m2221041983,52.354702591355,4.9263196889221,135.0,Ophalen of Verzenden,Vandaag,Ophalen of Verzenden,Klassieke Uitlaten Specialist
m2221053329,Zenit TTl plus helios 44m,2 zenit spiegelreflex body’s in werkende staat. 1 X helios 44m en 1 pentacon lens.,https://images.marktplaats.com/api/v1/listing-mp-p/images/bb/bb30ae02-083f-4e4e-805a-aee2ea3df8aa?rule=ecg_mp_eps$_82.jpg,https://link.marktplaats.nl/m2221053329,52.347327777422,4.8748539899269,70.0,Verzenden,Vandaag,Verzenden,TomE
m2221052537,Analoge MIRANDA sensomat met lenzen,"Aangeboden een mooie miranda sensomat, met soligor f2.8/28 Met uv filter plus miranda f2.8/135, Verwisselbare zoekers. Zie foto",https://images.marktplaats.com/api/v1/listing-mp-p/images/f6/f6222fd3-519b-40a8-8aa2-d1eeb538a469?rule=ecg_mp_eps$_82.jpg,https://link.marktplaats.nl/m2221052537,53.175405023088,5.4265708427224,80.0,Ophalen of Verzenden,Vandaag,Ophalen of Verzenden,PDA
m2221020615,Vintage EXA EXAKTA 1a Incl.filters lenzen,"Vintage exa exakta 1a incl.filters lenzen en gebruiksaanwijzing, zie foto",https://images.marktplaats.com/api/v1/listing-mp-p/images/21/21b752c8-d1e0-41a6-9ff0-7c8ca4e0ede4?rule=ecg_mp_eps$_82.jpg,https://link.marktplaats.nl/m2221020615,51.823272299573,4.6775805441617,75.0,Ophalen of Verzenden,Vandaag,Ophalen of Verzenden,Frans
m2221020615,Vintage EXA EXAKTA 1a Incl.filters lenzen,"Vintage exa exakta 1a incl.filters lenzen en gebruiksaanwijzing, zie foto",https://images.marktplaats.com/api/v1/listing-mp-p/images/21/21b752c8-d1e0-41a6-9ff0-7c8ca4e0ede4?rule=ecg_mp_eps$_82.jpg,https://link.marktplaats.nl/m2221020615,51.823272299573,4.6775805441617,75.0,Ophalen of Verzenden,Vandaag,Ophalen of Verzenden,Frans
m2220940973,Zoeker pentax ff-1 voor een lx body,Unieke zoeker voor een pentax lx camera ff-1 pentax ff-1 waist level finder for lx,https://images.marktplaats.com/api/v1/listing-mp-p/images/ac/aced8fa3-62d6-4b5d-9f0e-d697479b4f5d?rule=ecg_mp_eps$_82.jpg,https://link.marktplaats.nl/m2220940973,52.240104254846,6.1873268285093,200.0,Ophalen of Verzenden,Vandaag,Gebruikt,De Jong
m2220946615,Fototoestel Pentax Espio 738 G,Fototoestel pentax espio 738 g,https://images.marktplaats.com/api/v1/listing-mp-p/images/a0/a0cf61ff-59ff-4f31-af9e-5e4671ac3497?rule=ecg_mp_eps$_82.jpg,https://link.marktplaats.nl/m2220946615,52.160044142595,5.3751061299072,0.0,Verzenden,Vandaag,Verzenden,claudia
m2221002909,Nikon F801,Zie foto's,https://images.marktplaats.com/api/v1/listing-mp-p/images/24/24fd5f5a-c252-4ab9-8140-eb7212260fcc?rule=ecg_mp_eps$_82.jpg,https://link.marktplaats.nl/m2221002909,52.942424446514,5.9485011382483,0.0,Verzenden,Vandaag,Verzenden,SjF1stra
m2220974180,Nikon F-401X camera!,"Nu te koop deze nikon f 401x camera.  De prijs is nu voor maar €25,-   we hebben nu tijdelijk een totale uitverkoop !! Alles ",https://images.marktplaats.com/api/v1/listing-mp-p/images/c7/c7634157-2ab7-402f-a872-051d47380530?rule=ecg_mp_eps$_82.jpg,https://link.marktplaats.nl/m2220974180,51.94606968894,4.4088950124926,25.0,Ophalen,Vandaag,Ophalen,Boedelmania
m2220957423,Canon EOS 50E body EF-mount + date back + BP50 batterijgrip,"Zo lang de advertentie hier staat is het product te koop neem foto's op 35mm film in de winter van familie, vrienden of pittor",https://images.marktplaats.com/api/v1/listing-mp-p/images/e3/e39f95f1-d7d5-4b06-99d0-3325c70ce72d?rule=ecg_mp_eps$_82.jpg,https://link.marktplaats.nl/m2220957423,51.694776886936,3.7425852477311,120.0,Ophalen of Verzenden,Vandaag,Ophalen of Verzenden,woke LGBTQIA+ propagandist
m2221001053,Vintage analoge camera Canonet  28,Een gerenomeerde camera uit de jaren  '60 compleet met origineel tasje met lensdop lens: 40 mm  1:2.8 De batterij (625) moet v,https://images.marktplaats.com/api/v1/listing-mp-p/images/88/880d1ad8-b841-42a8-9576-1db5079d3560?rule=ecg_mp_eps$_82.jpg,https://link.marktplaats.nl/m2221001053,51.371776828645,5.2609886024343,22.0,Ophalen of Verzenden,Vandaag,Ophalen of Verzenden,Dick de Ruiter
m2220725353,Aluminium koffer met practica fotografie set div lenzen,Aluminium koffer met practica fotografie set div lenzen een bieder ontvangt alleen een reactie bij een aanvaardbaar bod. Kosten en,https://images.marktplaats.com/api/v1/listing-mp-p/images/29/29548083-6283-4ff5-bc31-24e2660b4419?rule=ecg_mp_eps$_82.jpg,https://link.marktplaats.nl/m2220725353,52.077608620421,4.2734441135929,75.0,Ophalen of Verzenden,Vandaag,Ophalen of Verzenden,Saint
m2220736738,Olympus OM 1n inclusief lenzen!,Mooie vintage camera!,https://images.marktplaats.com/api/v1/listing-mp-p/images/b7/b7a0c04f-3bff-49ed-9c2c-109aee36f07f?rule=ecg_mp_eps$_82.jpg,https://link.marktplaats.nl/m2220736738,52.351004671175,5.0138022908,150.0,Ophalen,Vandaag,Ophalen,Sjoerd
m2220758644,Analoge foto toestellen met lenzen en een camera,Foto toestellen en lenzen en camera graag alles in 1 koop,https://images.marktplaats.com/api/v1/listing-mp-p/images/c6/c6f80e71-5c96-45db-b9d7-0d34e3b38afa?rule=ecg_mp_eps$_82.jpg,https://link.marktplaats.nl/m2220758644,52.152075773967,4.473074359315,30.0,Ophalen,Vandaag,Ophalen,Elly
m2220733586,"Konica Autoreflex TC + lenzen, bewaardoosjes, analoog","Zeer complete set met analoog camera uit 1976 (!): De konica autoflex tc, inclusief 3 lenzen (zie hieronder voor de specs), andere",https://images.marktplaats.com/api/v1/listing-mp-p/images/e3/e3a42737-4912-4ee1-8def-1e480485e19b?rule=ecg_mp_eps$_82.jpg,https://link.marktplaats.nl/m2220733586,52.083153255377,4.3989878638646,250.0,Ophalen,Vandaag,Ophalen,vandevoortiris
m2220925857,Hasselblad XCD 45P 45mm F/4 in absolute nieuwstaat met bon,Hasselblad xcd 45p 45mm f/4 in absolute nieuwstaat met bon en volledige garantie. De lens is in vorig maand aangeschaft en een wee,https://images.marktplaats.com/api/v1/listing-mp-p/images/69/6919410f-fc57-4304-958f-4208e201223b?rule=ecg_mp_eps$_82.jpg,https://link.marktplaats.nl/m2220925857,52.098942074388,5.0027265981559,1000.0,Ophalen of Verzenden,Vandaag,Ophalen of Verzenden,Ash
a1387881779,"The Analog Camera Store koopt in: Leica, Hasselblad, Rollei","The analog camera store, webshop vanuit ter heijde, gespecialiseerd in het in en verkopen van analoge camera's en objectieven.",https://mp.images.icas.io/api/v1/a6519ad0/images/9b/9bc5c262-9658-4e4f-a200-01f06fd30d3b?rule=eps_82.JPG,https://link.marktplaats.nl/a1387881779,52.03010559082031,4.167525291442871,0.0,,Vandaag,Gebruikt,The Analog Camera Store
m2220935173,Vintage Pentax KM camerabody (K1000 + selftimer & DOF prev),"Pentax km uit de jaren 70, zonder lens met de originele paraattas. Deze is niet met film getest maar alle sluitertijden werken, de",https://images.marktplaats.com/api/v1/listing-mp-p/images/2d/2d962df4-1676-44c6-a8df-1ac1c84d752d?rule=ecg_mp_eps$_82.jpg,https://link.marktplaats.nl/m2220935173,51.32835670928,3.486533164592,0.0,Ophalen of Verzenden,Vandaag,Ophalen of Verzenden,Hannes
m2220935772,Vintage Pentax KM camerabody zwart (K1000 + selftimer & DOF),Pentax km in de minder voorkomende zwarte kleur met een originele handleiding. Deze is niet met film getest maar alle sluitertijde,https://images.marktplaats.com/api/v1/listing-mp-p/images/90/908a4790-565c-420b-8cb5-4f42c7c7454f?rule=ecg_mp_eps$_82.jpg,https://link.marktplaats.nl/m2220935772,51.32835670928,3.486533164592,0.0,Ophalen of Verzenden,Vandaag,Ophalen of Verzenden,Hannes
m2220936333,Vintage Pentax boekjes & lensdoppen waarvan één nieuw (70's),Pentax lensdoppen/caps uit de jaren 70-80 waarvan één nieuw verpakt en de andere in goede staat in de verpakking. Er zijn ook twee,https://images.marktplaats.com/api/v1/listing-mp-p/images/4a/4ad5386e-119a-4cf1-8987-91d09a771d44?rule=ecg_mp_eps$_82.jpg,https://link.marktplaats.nl/m2220936333,51.32835670928,3.486533164592,12.5,Ophalen of Verzenden,Vandaag,Ophalen of Verzenden,Hannes
m2220937243,Canon eos 350D,"Canon eos 350d met 18-55 mm lens. Incl lader,cf kaartje en twee accu's",https://images.marktplaats.com/api/v1/listing-mp-p/images/86/867c7f38-8c70-43f2-9400-c5efe9af1b66?rule=ecg_mp_eps$_82.jpg,https://link.marktplaats.nl/m2220937243,51.926287893193,5.7101063806656,60.0,Ophalen of Verzenden,Vandaag,Ophalen of Verzenden,Rosa
m2220922899,"Analoge camera's Agfa, Kodak, Canon, Camex",Een viijftal analoge camera's uit de archieven van de familie: 1. Agfa isomat rapid 45/38 + tasje + flitser agfa isi + heupbox,https://images.marktplaats.com/api/v1/listing-mp-p/images/5a/5a8d46ff-8282-4f8c-b84b-c5653554e791?rule=ecg_mp_eps$_82.jpg,https://link.marktplaats.nl/m2220922899,51.582437908445,4.789830107796,75.0,Ophalen of Verzenden,Vandaag,Ophalen of Verzenden,Ghering
m2220911661,Speigelreflex Yashica en toebehoren,Volledige uitrusting als set: 1. Yashica fx-2 met lens dsb 5.0 Mm 1:19 2. Yashica fx-3 super 2000 met lens dsb 5.0 Mm 1:19 (boekje,https://images.marktplaats.com/api/v1/listing-mp-p/images/12/12afa64d-91ab-4d41-b1a9-5a0b40a95c63?rule=ecg_mp_eps$_82.jpg,https://link.marktplaats.nl/m2220911661,51.582437908445,4.789830107796,230.0,Ophalen of Verzenden,Vandaag,Ophalen of Verzenden,Ghering
m2220915130,Nikon Lite Touch Zoom 120ED,"Nikon lite touch zoom 120ed (met handleiding in doos) zoom lens 38-120 mm macro bij serieuze interesse, doe n redelijk bod.",https://images.marktplaats.com/api/v1/listing-mp-p/images/b5/b560edc4-a93c-4202-8d09-8e1c60caaeae?rule=ecg_mp_eps$_82.jpg,https://link.marktplaats.nl/m2220915130,51.582437908445,4.789830107796,35.0,Ophalen of Verzenden,Vandaag,Ophalen of Verzenden,Ghering
m2220909793,Canon 850D + 18-55mm lens,"Wat krijg je erbij -accu -camera -lens 18-55mm -oplader -zonnekap de camera is in hele goeie staat, de camera heeft maar 9228 clic",https://images.marktplaats.com/api/v1/listing-mp-p/images/a7/a75b8573-28a2-4a2b-b60c-29605476b05a?rule=ecg_mp_eps$_82.jpg,https://link.marktplaats.nl/m2220909793,52.647507498283,5.096047919459,549.99,Ophalen of Verzenden,Vandaag,Ophalen of Verzenden,robin
m2220888590,Hasselblad H1 + HC 1:2.8/80mm + HM 16-32 film back - ZGAN,"Deze vrijwel nieuwe hasselblad h1 komt uit de vitrine van hasselblad nederland. De body, lens en film achterwand verkeren allen in",https://images.marktplaats.com/api/v1/listing-mp-p/images/5e/5e1b4277-0b26-4aa1-98a1-7d9976fe6420?rule=ecg_mp_eps$_82.jpg,https://link.marktplaats.nl/m2220888590,52.203653533224,5.9740530235223,2000.0,Ophalen,Vandaag,Ophalen,N.
m2220881727,Pentax auto 110,Pentax auto 110,https://images.marktplaats.com/api/v1/listing-mp-p/images/d7/d730e57b-0565-45dd-9cb0-4258d4d7e0b0?rule=ecg_mp_eps$_82.jpg,https://link.marktplaats.nl/m2220881727,52.37753456456,5.8102610590211,0.0,Ophalen of Verzenden,Vandaag,Ophalen of Verzenden,Henk
m2220883524,Te Koop: Vintage Rollei 35,"Duik in de wereld van analoge fotografie met deze klassieke rollei 35 camera, een gewaardeerd model uit de jaren 60. Dit compacte ",https://images.marktplaats.com/api/v1/listing-mp-p/images/32/3271fe0d-13d3-4191-911b-5fdaf1503070?rule=ecg_mp_eps$_82.jpg,https://link.marktplaats.nl/m2220883524,51.636615998827,4.5906514700515,50.0,Ophalen of Verzenden,Vandaag,Ophalen of Verzenden,Zevenbergentje
m2220891480,Canon Eos 5,Goed werkende automatische analoge camera. Schiet prachtige beelden op film. Omdat dit een late analoog camera is zitten er veel a,https://images.marktplaats.com/api/v1/listing-mp-p/images/c9/c9d44796-f536-4163-aca5-03731f58f13c?rule=ecg_mp_eps$_82.jpg,https://link.marktplaats.nl/m2220891480,52.351687789539,5.0033047605263,100.0,Ophalen,Vandaag,Ophalen,Yannick
m2220891810,Vintage Canon Canonet 28 Analoge camera,"De canonet 28, ook wel bekend als de ""new canonet 28"", is een icoon in de wereld van de filmfotografie. De camera werd u",https://images.marktplaats.com/api/v1/listing-mp-p/images/d0/d0c78b34-bc3c-4fdc-a440-884414edf7c6?rule=ecg_mp_eps$_82.jpg,https://link.marktplaats.nl/m2220891810,52.03838839842,5.1205162992916,40.0,Verzenden,Vandaag,Verzenden,Socrates
m2220880876,Yashica T4 te koop,Nette yashica t4 te koop. De super point and shoot met zeis t* lens. Naar waarde bieden aub. Stuur gerust een bericht voor vragen,https://images.marktplaats.com/api/v1/listing-mp-p/images/7c/7c239892-6b1d-4578-bc01-2c79c5b3eda6?rule=ecg_mp_eps$_82.jpg,https://link.marktplaats.nl/m2220880876,51.995942616066,5.9241497580297,380.0,Ophalen of Verzenden,Vandaag,Ophalen of Verzenden,GF
m2213782844,Yashica vintage fotocamera met originele hardcase,Yashica vintage fotocamera met originele hardcase. Kijk ook bij mijn andere advertenties voor meer nette en complete vintage fotoc,https://images.marktplaats.com/api/v1/listing-mp-p/images/15/15c888b9-63f3-4844-93f7-2dcb027379e6?rule=ecg_mp_eps$_82.jpg,https://link.marktplaats.nl/m2213782844,51.88635391134,5.6247503611999,15.0,Ophalen of Verzenden,Vandaag,Ophalen of Verzenden,Marco
m2220873691,6x spiegelreflex (Pentax K1000 - Minolta XD5 - XG1),6x spiegelreflexcamera's 1x pentax k1000 (werkt goed) 1x minolta xd5 met motordrive 1x minolta xd5 met 135 1x x-9 2x xg1 geen ,https://images.marktplaats.com/api/v1/listing-mp-p/images/74/74f193d8-b612-47e0-928a-395c2200ffcf?rule=ecg_mp_eps$_82.jpg,https://link.marktplaats.nl/m2220873691,50.864990152629,5.8242934360988,0.0,Ophalen of Verzenden,Vandaag,Ophalen of Verzenden,BVC
m2220866112,Pentax MZ-7 met Tamron AF 28-200 Super Zoom,Pentax mz-7 met tamron af 28-200 super zoom analoge pentax mz-7 spiegelreflex camera en tamron af28-200 super zoom lens. Ddl 35 ca,https://images.marktplaats.com/api/v1/listing-mp-p/images/1e/1e288713-337c-4bff-88c0-cea45afe0226?rule=ecg_mp_eps$_82.jpg,https://link.marktplaats.nl/m2220866112,52.258107777394,6.2321227745293,25.0,Ophalen of Verzenden,Vandaag,Ophalen of Verzenden,Harold
m2220851513,Nikon F-401x,Nikon f-401x in prima staat. Met diverse filters met opbergtas en tevens groot en klein statief.,https://images.marktplaats.com/api/v1/listing-mp-p/images/e6/e68e418a-415a-46b8-a2fe-67fe4ad1990e?rule=ecg_mp_eps$_82.jpg,https://link.marktplaats.nl/m2220851513,50.963451560698,5.8283851301974,0.0,Ophalen of Verzenden,Vandaag,Ophalen of Verzenden,Gemma
m2220848902,Canon eos 350D,"Canon eos 350d met 18-55 lens. En incl twee accu's, cf kaartje en een lader",https://images.marktplaats.com/api/v1/listing-mp-p/images/da/da1bb6fe-c0ab-401d-8103-bae242d7ca28?rule=ecg_mp_eps$_82.jpg,https://link.marktplaats.nl/m2220848902,51.926287893193,5.7101063806656,60.0,Ophalen of Verzenden,Vandaag,Ophalen of Verzenden,Rosa
