item,title,description,img_url,product_url,latitude,longitude,price,delivery,dates,extended_attributes,seller_names
m2221041983,Canon AE-1 Program  izgst/werkt goed,Canon ae-1 program de program is de verbeterde opvolger van de klassieke ae-1. Naast de automaat met sluitertijdvoorkeuze van de l,https://images.marktplaats.com/api/v1/listing-mp-p/images/d4/d4d78791-ef21-4aa3-8b03-2dd47dfeec89?rule=ecg_mp_eps$_82.jpg,https://link.marktplaats.nl/m2221041983,52.354702591355,4.9263196889221,135.0,Ophalen of Verzenden,Vandaag,Ophalen of Verzenden,Klassieke Uitlaten Specialist
m2221053329,Zenit TTl plus helios 44m,2 zenit spiegelreflex body’s in werkende staat. 1 X helios 44m en 1 pentacon lens.,https://images.marktplaats.com/api/v1/listing-mp-p/images/bb/bb30ae02-083f-4e4e-805a-aee2ea3df8aa?rule=ecg_mp_eps$_82.jpg,https://link.marktplaats.nl/m2221053329,52.347327777422,4.8748539899269,70.0,Verzenden,Vandaag,Verzenden,TomE
m2221052537,Analoge MIRANDA sensomat met lenzen,"Aangeboden een mooie miranda sensomat, met soligor f2.8/28 Met uv filter plus miranda f2.8/135, Verwisselbare zoekers. Zie foto",https://images.marktplaats.com/api/v1/listing-mp-p/images/f6/f6222fd3-519b-40a8-8aa2-d1eeb538a469?rule=ecg_mp_eps$_82.jpg,https://link.marktplaats.nl/m2221052537,53.175405023088,5.4265708427224,80.0,Ophalen of Verzenden,Vandaag,Ophalen of Verzenden,PDA
m2221020615,Vintage EXA EXAKTA 1a Incl.filters lenzen,"Vintage exa exakta 1a incl.filters lenzen en gebruiksaanwijzing, zie foto",https://images.marktplaats.com/api/v1/listing-mp-p/images/21/21b752c8-d1e0-41a6-9ff0-7c8ca4e0ede4?rule=ecg_mp_eps$_82.jpg,https://link.marktplaats.nl/m2221020615,51.823272299573,4.6775805441617,75.0,Ophalen of Verzenden,Vandaag,Ophalen of Verzenden,Frans
m2221020615,Vintage EXA EXAKTA 1a Incl.filters lenzen,"Vintage exa exakta 1a incl.filters lenzen en gebruiksaanwijzing, zie foto",https://images.marktplaats.com/api/v1/listing-mp-p/images/21/21b752c8-d1e0-41a6-9ff0-7c8ca4e0ede4?rule=ecg_mp_eps$_82.jpg,https://link.marktplaats.nl/m2221020615,51.823272299573,4.6775805441617,75.0,Ophalen of Verzenden,Vandaag,Ophalen of Verzenden,Frans
m2220940973,Zoeker pentax ff-1 voor een lx body,Unieke zoeker voor een pentax lx camera ff-1 pentax ff-1 waist level finder for lx,https://images.marktplaats.com/api/v1/listing-mp-p/images/ac/aced8fa3-62d6-4b5d-9f0e-d697479b4f5d?rule=ecg_mp_eps$_82.jpg,https://link.marktplaats.nl/m2220940973,52.240104254846,6.1873268285093,200.0,Ophalen of Verzenden,Vandaag,Gebruikt,De Jong
m2220946615,Fototoestel Pentax Espio 738 G,Fototoestel pentax espio 738 g,https://images.marktplaats.com/api/v1/listing-mp-p/images/a0/a0cf61ff-59ff-4f31-af9e-5e4671ac3497?rule=ecg_mp_eps$_82.jpg,https://link.marktplaats.nl/m2220946615,52.160044142595,5.3751061299072,0.0,Verzenden,Vandaag,Verzenden,claudia
m2221002909,Nikon F801,Zie foto's,https://images.marktplaats.com/api/v1/listing-mp-p/images/24/24fd5f5a-c252-4ab9-8140-eb7212260fcc?rule=ecg_mp_eps$_82.jpg,https://link.marktplaats.nl/m2221002909,52.942424446514,5.9485011382483,0.0,Verzenden,Vandaag,Verzenden,SjF1stra
m2220974180,Nikon F-401X camera!,"Nu te koop deze nikon f 401x camera.  De prijs is nu voor maar €25,-   we hebben nu tijdelijk een totale uitverkoop !! Alles ",https://images.marktplaats.com/api/v1/listing-mp-p/images/c7/c7634157-2ab7-402f-a872-051d47380530?rule=ecg_mp_eps$_82.jpg,https://link.marktplaats.nl/m2220974180,51.94606968894,4.4088950124926,25.0,Ophalen,Vandaag,Ophalen,Boedelmania
m2220957423,Canon EOS 50E body EF-mount + date back + BP50 batterijgrip,"Zo lang de advertentie hier staat is het product te koop neem foto's op 35mm film in de winter van familie, vrienden of pittor",https://images.marktplaats.com/api/v1/listing-mp-p/images/e3/e39f95f1-d7d5-4b06-99d0-3325c70ce72d?rule=ecg_mp_eps$_82.jpg,https://link.marktplaats.nl/m2220957423,51.694776886936,3.7425852477311,120.0,Ophalen of Verzenden,Vandaag,Ophalen of Verzenden,woke LGBTQIA+ propagandist
m2221001053,Vintage analoge camera Canonet  28,Een gerenomeerde camera uit de jaren  '60 compleet met origineel tasje met lensdop lens: 40 mm  1:2.8 De batterij (625) moet v,https://images.marktplaats.com/api/v1/listing-mp-p/images/88/880d1ad8-b841-42a8-9576-1db5079d3560?rule=ecg_mp_eps$_82.jpg,https://link.marktplaats.nl/m2221001053,51.371776828645,5.2609886024343,22.0,Ophalen of Verzenden,Vandaag,Ophalen of Verzenden,Dick de Ruiter
m2220725353,Aluminium koffer met practica fotografie set div lenzen,Aluminium koffer met practica fotografie set div lenzen een bieder ontvangt alleen een reactie bij een aanvaardbaar bod. Kosten en,https://images.marktplaats.com/api/v1/listing-mp-p/images/29/29548083-6283-4ff5-bc31-24e2660b4419?rule=ecg_mp_eps$_82.jpg,https://link.marktplaats.nl/m2220725353,52.077608620421,4.2734441135929,75.0,Ophalen of Verzenden,Vandaag,Ophalen of Verzenden,Saint
m2220736738,Olympus OM 1n inclusief lenzen!,Mooie vintage camera!,https://images.marktplaats.com/api/v1/listing-mp-p/images/b7/b7a0c04f-3bff-49ed-9c2c-109aee36f07f?rule=ecg_mp_eps$_82.jpg,https://link.marktplaats.nl/m2220736738,52.351004671175,5.0138022908,150.0,Ophalen,Vandaag,Ophalen,Sjoerd
m2220758644,Analoge foto toestellen met lenzen en een camera,Foto toestellen en lenzen en camera graag alles in 1 koop,https://images.marktplaats.com/api/v1/listing-mp-p/images/c6/c6f80e71-5c96-45db-b9d7-0d34e3b38afa?rule=ecg_mp_eps$_82.jpg,https://link.marktplaats.nl/m2220758644,52.152075773967,4.473074359315,30.0,Ophalen,Vandaag,Ophalen,Elly
m2220733586,"Konica Autoreflex TC + lenzen, bewaardoosjes, analoog","Zeer complete set met analoog camera uit 1976 (!): De konica autoflex tc, inclusief 3 lenzen (zie hieronder voor de specs), andere",https://images.marktplaats.com/api/v1/listing-mp-p/images/e3/e3a42737-4912-4ee1-8def-1e480485e19b?rule=ecg_mp_eps$_82.jpg,https://link.marktplaats.nl/m2220733586,52.083153255377,4.3989878638646,250.0,Ophalen,Vandaag,Ophalen,vandevoortiris
m2220925857,Hasselblad XCD 45P 45mm F/4 in absolute nieuwstaat met bon,Hasselblad xcd 45p 45mm f/4 in absolute nieuwstaat met bon en volledige garantie. De lens is in vorig maand aangeschaft en een wee,https://images.marktplaats.com/api/v1/listing-mp-p/images/69/6919410f-fc57-4304-958f-4208e201223b?rule=ecg_mp_eps$_82.jpg,https://link.marktplaats.nl/m2220925857,52.098942074388,5.0027265981559,1000.0,Ophalen of Verzenden,Vandaag,Ophalen of Verzenden,Ash
a1387881779,"The Analog Camera Store koopt in: Leica, Hasselblad, Rollei","The analog camera store, webshop vanuit ter heijde, gespecialiseerd in het in en verkopen van analoge camera's en objectieven.",https://mp.images.icas.io/api/v1/a6519ad0/images/9b/9bc5c262-9658-4e4f-a200-01f06fd30d3b?rule=eps_82.JPG,https://link.marktplaats.nl/a1387881779,52.03010559082031,4.167525291442871,0.0,,Vandaag,Gebruikt,The Analog Camera Store
m2220935173,Vintage Pentax KM camerabody (K1000 + selftimer & DOF prev),"Pentax km uit de jaren 70, zonder lens met de originele paraattas. Deze is niet met film getest maar alle sluitertijden werken, de",https://images.marktplaats.com/api/v1/listing-mp-p/images/2d/2d962df4-1676-44c6-a8df-1ac1c84d752d?rule=ecg_mp_eps$_82.jpg,https://link.marktplaats.nl/m2220935173,51.32835670928,3.486533164592,0.0,Ophalen of Verzenden,Vandaag,Ophalen of Verzenden,Hannes
m2220935772,Vintage Pentax KM camerabody zwart (K1000 + selftimer & DOF),Pentax km in de minder voorkomende zwarte kleur met een originele handleiding. Deze is niet met film getest maar alle sluitertijde,https://images.marktplaats.com/api/v1/listing-mp-p/images/90/908a4790-565c-420b-8cb5-4f42c7c7454f?rule=ecg_mp_eps$_82.jpg,https://link.marktplaats.nl/m2220935772,51.32835670928,3.486533164592,0.0,Ophalen of Verzenden,Vandaag,Ophalen of Verzenden,Hannes
m2220936333,Vintage Pentax boekjes & lensdoppen waarvan één nieuw (70's),Pentax lensdoppen/caps uit de jaren 70-80 waarvan één nieuw verpakt en de andere in goede staat in de verpakking. Er zijn ook twee,https://images.marktplaats.com/api/v1/listing-mp-p/images/4a/4ad5386e-119a-4cf1-8987-91d09a771d44?rule=ecg_mp_eps$_82.jpg,https://link.marktplaats.nl/m2220936333,51.32835670928,3.486533164592,12.5,Ophalen of Verzenden,Vandaag,Ophalen of Verzenden,Hannes
m2220937243,Canon eos 350D,"Canon eos 350d met 18-55 mm lens. Incl lader,cf kaartje en twee accu's",https://images.marktplaats.com/api/v1/listing-mp-p/images/86/867c7f38-8c70-43f2-9400-c5efe9af1b66?rule=ecg_mp_eps$_82.jpg,https://link.marktplaats.nl/m2220937243,51.926287893193,5.7101063806656,60.0,Ophalen of Verzenden,Vandaag,Ophalen of Verzenden,Rosa
m2220922899,"Analoge camera's Agfa, Kodak, Canon, Camex",Een viijftal analoge camera's uit de archieven van de familie: 1. Agfa isomat rapid 45/38 + tasje + flitser agfa isi + heupbox,https://images.marktplaats.com/api/v1/listing-mp-p/images/5a/5a8d46ff-8282-4f8c-b84b-c5653554e791?rule=ecg_mp_eps$_82.jpg,https://link.marktplaats.nl/m2220922899,51.582437908445,4.789830107796,75.0,Ophalen of Verzenden,Vandaag,Ophalen of Verzenden,Ghering
m2220911661,Speigelreflex Yashica en toebehoren,Volledige uitrusting als set: 1. Yashica fx-2 met lens dsb 5.0 Mm 1:19 2. Yashica fx-3 super 2000 met lens dsb 5.0 Mm 1:19 (boekje,https://images.marktplaats.com/api/v1/listing-mp-p/images/12/12afa64d-91ab-4d41-b1a9-5a0b40a95c63?rule=ecg_mp_eps$_82.jpg,https://link.marktplaats.nl/m2220911661,51.582437908445,4.789830107796,230.0,Ophalen of Verzenden,Vandaag,Ophalen of Verzenden,Ghering
m2220915130,Nikon Lite Touch Zoom 120ED,"Nikon lite touch zoom 120ed (met handleiding in doos) zoom lens 38-120 mm macro bij serieuze interesse, doe n redelijk bod.",https://images.marktplaats.com/api/v1/listing-mp-p/images/b5/b560edc4-a93c-4202-8d09-8e1c60caaeae?rule=ecg_mp_eps$_82.jpg,https://link.marktplaats.nl/m2220915130,51.582437908445,4.789830107796,35.0,Ophalen of Verzenden,Vandaag,Ophalen of Verzenden,Ghering
m2220909793,Canon 850D + 18-55mm lens,"Wat krijg je erbij -accu -camera -lens 18-55mm -oplader -zonnekap de camera is in hele goeie staat, de camera heeft maar 9228 clic",https://images.marktplaats.com/api/v1/listing-mp-p/images/a7/a75b8573-28a2-4a2b-b60c-29605476b05a?rule=ecg_mp_eps$_82.jpg,https://link.marktplaats.nl/m2220909793,52.647507498283,5.096047919459,549.99,Ophalen of Verzenden,Vandaag,Ophalen of Verzenden,robin
m2220888590,Hasselblad H1 + HC 1:2.8/80mm + HM 16-32 film back - ZGAN,"Deze vrijwel nieuwe hasselblad h1 komt uit de vitrine van hasselblad nederland. De body, lens en film achterwand verkeren allen in",https://images.marktplaats.com/api/v1/listing-mp-p/images/5e/5e1b4277-0b26-4aa1-98a1-7d9976fe6420?rule=ecg_mp_eps$_82.jpg,https://link.marktplaats.nl/m2220888590,52.203653533224,5.9740530235223,2000.0,Ophalen,Vandaag,Ophalen,N.
m2220881727,Pentax auto 110,Pentax auto 110,https://images.marktplaats.com/api/v1/listing-mp-p/images/d7/d730e57b-0565-45dd-9cb0-4258d4d7e0b0?rule=ecg_mp_eps$_82.jpg,https://link.marktplaats.nl/m2220881727,52.37753456456,5.8102610590211,0.0,Ophalen of Verzenden,Vandaag,Ophalen of Verzenden,Henk
m2220883524,Te Koop: Vintage Rollei 35,"Duik in de wereld van analoge fotografie met deze klassieke rollei 35 camera, een gewaardeerd model uit de jaren 60. Dit compacte ",https://images.marktplaats.com/api/v1/listing-mp-p/images/32/3271fe0d-13d3-4191-911b-5fdaf1503070?rule=ecg_mp_eps$_82.jpg,https://link.marktplaats.nl/m2220883524,51.636615998827,4.5906514700515,50.0,Ophalen of Verzenden,Vandaag,Ophalen of Verzenden,Zevenbergentje
m2220891480,Canon Eos 5,Goed werkende automatische analoge camera. Schiet prachtige beelden op film. Omdat dit een late analoog camera is zitten er veel a,https://images.marktplaats.com/api/v1/listing-mp-p/images/c9/c9d44796-f536-4163-aca5-03731f58f13c?rule=ecg_mp_eps$_82.jpg,https://link.marktplaats.nl/m2220891480,52.351687789539,5.0033047605263,100.0,Ophalen,Vandaag,Ophalen,Yannick
m2220891810,Vintage Canon Canonet 28 Analoge camera,"De canonet 28, ook wel bekend als de ""new canonet 28"", is een icoon in de wereld van de filmfotografie. De camera werd u",https://images.marktplaats.com/api/v1/listing-mp-p/images/d0/d0c78b34-bc3c-4fdc-a440-884414edf7c6?rule=ecg_mp_eps$_82.jpg,https://link.marktplaats.nl/m2220891810,52.03838839842,5.1205162992916,40.0,Verzenden,Vandaag,Verzenden,Socrates
m2220880876,Yashica T4 te koop,Nette yashica t4 te koop. De super point and shoot met zeis t* lens. Naar waarde bieden aub. Stuur gerust een bericht voor vragen,https://images.marktplaats.com/api/v1/listing-mp-p/images/7c/7c239892-6b1d-4578-bc01-2c79c5b3eda6?rule=ecg_mp_eps$_82.jpg,https://link.marktplaats.nl/m2220880876,51.995942616066,5.9241497580297,380.0,Ophalen of Verzenden,Vandaag,Ophalen of Verzenden,GF
m2213782844,Yashica vintage fotocamera met originele hardcase,Yashica vintage fotocamera met originele hardcase. Kijk ook bij mijn andere advertenties voor meer nette en complete vintage fotoc,https://images.marktplaats.com/api/v1/listing-mp-p/images/15/15c888b9-63f3-4844-93f7-2dcb027379e6?rule=ecg_mp_eps$_82.jpg,https://link.marktplaats.nl/m2213782844,51.88635391134,5.6247503611999,15.0,Ophalen of Verzenden,Vandaag,Ophalen of Verzenden,Marco
m2220873691,6x spiegelreflex (Pentax K1000 - Minolta XD5 - XG1),6x spiegelreflexcamera's 1x pentax k1000 (werkt goed) 1x minolta xd5 met motordrive 1x minolta xd5 met 135 1x x-9 2x xg1 geen ,https://images.marktplaats.com/api/v1/listing-mp-p/images/74/74f193d8-b612-47e0-928a-395c2200ffcf?rule=ecg_mp_eps$_82.jpg,https://link.marktplaats.nl/m2220873691,50.864990152629,5.8242934360988,0.0,Ophalen of Verzenden,Vandaag,Ophalen of Verzenden,BVC
m2220866112,Pentax MZ-7 met Tamron AF 28-200 Super Zoom,Pentax mz-7 met tamron af 28-200 super zoom analoge pentax mz-7 spiegelreflex camera en tamron af28-200 super zoom lens. Ddl 35 ca,https://images.marktplaats.com/api/v1/listing-mp-p/images/1e/1e288713-337c-4bff-88c0-cea45afe0226?rule=ecg_mp_eps$_82.jpg,https://link.marktplaats.nl/m2220866112,52.258107777394,6.2321227745293,25.0,Ophalen of Verzenden,Vandaag,Ophalen of Verzenden,Harold
m2220851513,Nikon F-401x,Nikon f-401x in prima staat. Met diverse filters met opbergtas en tevens groot en klein statief.,https://images.marktplaats.com/api/v1/listing-mp-p/images/e6/e68e418a-415a-46b8-a2fe-67fe4ad1990e?rule=ecg_mp_eps$_82.jpg,https://link.marktplaats.nl/m2220851513,50.963451560698,5.8283851301974,0.0,Ophalen of Verzenden,Vandaag,Ophalen of Verzenden,Gemma
m2220848902,Canon eos 350D,"Canon eos 350d met 18-55 lens. En incl twee accu's, cf kaartje en een lader",https://images.marktplaats.com/api/v1/listing-mp-p/images/da/da1bb6fe-c0ab-401d-8103-bae242d7ca28?rule=ecg_mp_eps$_82.jpg,https://link.marktplaats.nl/m2220848902,51.926287893193,5.7101063806656,60.0,Ophalen of Verzenden,Vandaag,Ophalen of Verzenden,Rosa
m2220857164,ZENIT spiegelreflex camera,(hw-fh),https://images.marktplaats.com/api/v1/listing-mp-p/images/95/9550e787-259e-4d45-9c9d-57d861306784?rule=ecg_mp_eps$_82.jpg,https://link.marktplaats.nl/m2220857164,51.422221331054,5.4119960724542,0.0,Ophalen of Verzenden,Vandaag,Ophalen of Verzenden,JJ
m2220837353,Yashica Electro 35,Yashica electro 35 met vast objectief yashinon-dx 1:1.7 F=45mm goed werkende camara. Voorzien van nieuwe 4lr44 batt.  Adapter zelf,https://images.marktplaats.com/api/v1/listing-mp-p/images/11/118dd53e-00b3-4d41-a1ea-b95eebb78046?rule=ecg_mp_eps$_82.jpg,https://link.marktplaats.nl/m2220837353,52.128434112654,4.4563919182406,0.0,Ophalen of Verzenden,Vandaag,Ophalen of Verzenden,H v.d.Boogaardt
m2220824311,Yashica 17 EE Half Rapid,Deze yashica is werkelijk in een prachtige conditie. Het is een half rapid system waardoor je eenkeer zoveel opnamen kon maken. Ca,https://images.marktplaats.com/api/v1/listing-mp-p/images/1b/1bbf49ca-8827-4a05-887a-f1988e013257?rule=ecg_mp_eps$_82.jpg,https://link.marktplaats.nl/m2220824311,52.258101986245,6.8268635751004,0.0,Ophalen of Verzenden,Vandaag,Ophalen of Verzenden,PhotoCorner
m2220827474,Pentax Espio 135M,"Een compacte analoge camera met zoomlens (38 - 135 mm), ingebouwde flitser, voorkomen van rode ogen functie, timer en autofocus. W",https://images.marktplaats.com/api/v1/listing-mp-p/images/aa/aa5207bf-57f8-4092-bf5d-55fda8546d68?rule=ecg_mp_eps$_82.jpg,https://link.marktplaats.nl/m2220827474,52.090002234947,5.228902485774,0.0,Ophalen,Vandaag,Ophalen,Ivo
m2220824508,Pentax Espio 145 M Super,"Een compacte analoge camera van het merk pentax. Met een zoomlens van 80 tot 145 mm, ingebouwde flits, rode ogen correctie en time",https://images.marktplaats.com/api/v1/listing-mp-p/images/8a/8a49d66d-37b8-4d9c-b66b-b7d83d5be34d?rule=ecg_mp_eps$_82.jpg,https://link.marktplaats.nl/m2220824508,52.090002234947,5.228902485774,0.0,Ophalen,Vandaag,Ophalen,Ivo
m2220819966,Nikon camera F90,Mooie camera inclusief lens. Te gebruiken met fotorolletjes,https://images.marktplaats.com/api/v1/listing-mp-p/images/96/96620505-1042-4b8c-93c2-88e5283092d2?rule=ecg_mp_eps$_82.jpg,https://link.marktplaats.nl/m2220819966,51.418529735441,5.6840923268804,75.0,Verzenden,Vandaag,Verzenden,Familie Geven
m2220837517,Spiegelrefex camera Nikon F50  met AF Nikkor 35-80mm,"Nikon f50 analoge spiegelreflexcamera met af-d nikkor 4-5,6d /35-80mm lens.  De camera heeft een zeer lichtsterk objectief!  . Com",https://images.marktplaats.com/api/v1/listing-mp-p/images/fb/fb84753f-b1fb-4bb8-a326-c3cff675bf11?rule=ecg_mp_eps$_82.jpg,https://link.marktplaats.nl/m2220837517,51.371776828645,5.2609886024343,30.0,Ophalen of Verzenden,Vandaag,Ophalen of Verzenden,Dick de Ruiter
m2220834386,Canon ftb QL+ Canon fd 50/1.8 + Soligor 135/2.8,Uit boedelruiming  in werkende staat,https://images.marktplaats.com/api/v1/listing-mp-p/images/00/00acf98d-9de2-41e5-903e-e076902eb7c6?rule=ecg_mp_eps$_82.jpg,https://link.marktplaats.nl/m2220834386,51.102649478811,5.8712648095637,0.0,Verzenden,Vandaag,Verzenden,R.
m2220827403,Miranda Sensorex camera,Miranda sensorex  de camera is in een goede conditie en alles werkt zoals het hoort.,https://images.marktplaats.com/api/v1/listing-mp-p/images/5e/5e4fc502-9e97-4abb-bf28-691d0f0e72ea?rule=ecg_mp_eps$_82.jpg,https://link.marktplaats.nl/m2220827403,52.258101986245,6.8268635751004,0.0,Ophalen of Verzenden,Vandaag,Ophalen of Verzenden,PhotoCorner
m2220792091,Yashica MF-1 camera,Yashica vintage camera in zeer goede staat. Flits en lichtmeter werken beide. Incl. Bijpassende hoes.,https://images.marktplaats.com/api/v1/listing-mp-p/images/02/02805070-f559-4984-bc27-63907fb9a4bb?rule=ecg_mp_eps$_82.jpg,https://link.marktplaats.nl/m2220792091,52.199462092545,5.3774343045241,0.0,Verzenden,Vandaag,Verzenden,Kels
m2220807260,Yashica 44 LM camera fototoestel,"Dit is de zwarte versie van de yashica 44 lm uit circa 1950 tot 1959, de camera werkt, alleen de belichtingsmeter slaat niet meer ",https://images.marktplaats.com/api/v1/listing-mp-p/images/51/51bfcba4-5733-4d04-ae58-73b8c95aaf3f?rule=ecg_mp_eps$_82.jpg,https://link.marktplaats.nl/m2220807260,52.431904780006,4.6575690697582,80.0,Ophalen of Verzenden,Vandaag,Ophalen of Verzenden,Ron
m2220788056,Pentax camera's analoog met toebehoren,"Twee camera""s: - asahi pantax spotmatic sp ii met takumar lens 1:3,5/28 met draagband en asahi pentax sv met aut-takumar lens",https://images.marktplaats.com/api/v1/listing-mp-p/images/3c/3c29253a-e06a-47b2-bd6f-aeee1626aa2c?rule=ecg_mp_eps$_82.jpg,https://link.marktplaats.nl/m2220788056,52.052509503239,5.2400713196494,0.0,Ophalen,Vandaag,Ophalen,Martens
m2220793349,Rolleiflex 3.5 E2 met Maxwell Hi-Lux matglas,"Helaas, na het ontmantelen van mijn donkere kamer in 2018 staat hij stil. 't was oorspronkelijk een 3.5 F uit 1960, maar hans ",https://images.marktplaats.com/api/v1/listing-mp-p/images/5d/5d61d3c1-56bd-405e-aff4-1fc55a7857bd?rule=ecg_mp_eps$_82.jpg,https://link.marktplaats.nl/m2220793349,52.333396945774,6.1107966311249,0.0,Ophalen,Vandaag,Ophalen,Bram
m2220793349,Rolleiflex 3.5 E2 met Maxwell Hi-Lux matglas,"Helaas, na het ontmantelen van mijn donkere kamer in 2018 staat hij stil. 't was oorspronkelijk een 3.5 F uit 1960, maar hans ",https://images.marktplaats.com/api/v1/listing-mp-p/images/5d/5d61d3c1-56bd-405e-aff4-1fc55a7857bd?rule=ecg_mp_eps$_82.jpg,https://link.marktplaats.nl/m2220793349,52.333396945774,6.1107966311249,0.0,Ophalen,Vandaag,Ophalen,Bram
m2220815321,Nikon F301 Film camera and lenses,"Excellent condition, one owner (me) nikon f301 film camera with two zoom lenses. Fully working, ideal start for those wanting to e",https://images.marktplaats.com/api/v1/listing-mp-p/images/d1/d10e616b-93c7-4b7b-a898-04fe3159f4cf?rule=ecg_mp_eps$_82.jpg,https://link.marktplaats.nl/m2220815321,52.084475598679,4.3411654518263,0.0,Ophalen of Verzenden,Vandaag,Ophalen of Verzenden,PeteGeo
m2220771793,Nikon lite Touch zoom 70ws AF camera,"Zeer fraaie handige kleine nikon camera, werkt goed.",https://images.marktplaats.com/api/v1/listing-mp-p/images/41/41f63a3a-3353-4c6d-b5bb-779ac20f957d?rule=ecg_mp_eps$_82.jpg,https://link.marktplaats.nl/m2220771793,53.204084583347,5.7940547150299,0.0,Ophalen of Verzenden,Vandaag,Ophalen of Verzenden,Time
m2220786134,Nikon F55,"Mooie camera voor verzamelaar of opnieuwe gebruiker. Is in goede conditie, geen schade.",https://images.marktplaats.com/api/v1/listing-mp-p/images/b6/b6c7993e-60be-46c4-838a-28249c779f6d?rule=ecg_mp_eps$_82.jpg,https://link.marktplaats.nl/m2220786134,51.418085738113,5.4833098759854,99.0,Ophalen of Verzenden,Vandaag,Ophalen of Verzenden,Jan van Ginkel
m2220778115,Nette nikon f90 analoge camera met lens,Met batterijen getest en helemaal klaar voor nog vele rolletjes. Echt een camera voor wanneer je wel analoog wilt schieten maar ge,https://images.marktplaats.com/api/v1/listing-mp-p/images/e5/e5e7775d-b337-4d52-b8d5-716edeab366b?rule=ecg_mp_eps$_82.jpg,https://link.marktplaats.nl/m2220778115,52.405100053131,4.6503488919073,0.0,Verzenden,Vandaag,Verzenden,Pepijn
m2220812274,Canon AE-1 Program - Canon Motordrive - Canon 50mm 1.4.,.. - Canon ae-1 program camera. - Nieuwe batt. - Canon ma motordrive.  (Nieuwstaat). - 6 X nieuwe batt. - Canon fd 50mm 1.4 Lichts,https://images.marktplaats.com/api/v1/listing-mp-p/images/91/911fc917-90b9-4b1f-ac6e-401141058321?rule=ecg_mp_eps$_82.jpg,https://link.marktplaats.nl/m2220812274,52.656950335724,4.8233568877883,0.0,Ophalen,Vandaag,Ophalen,Jordin
m2220810266,"Canon T70 met 2 lenzen, externe flitser en koffer",Canon t70 (werkend en in nette staat) met fotokoffer 2 lenzen met hoes cosina 35-70 mm 1:3.5–4.5 Met uv filter tokina 70 – 210 mm ,https://images.marktplaats.com/api/v1/listing-mp-p/images/a2/a230f667-4cd2-45b9-8abb-860aff7a02f1?rule=ecg_mp_eps$_82.jpg,https://link.marktplaats.nl/m2220810266,52.079157119564,5.2534774430522,0.0,Ophalen of Verzenden,Vandaag,Ophalen of Verzenden,Mariette
m2220798624,CANON Zonnekap clamp 50mm,Canon zonnekap clamp 50mm,https://images.marktplaats.com/api/v1/listing-mp-p/images/0d/0de927e1-036d-4936-ad54-18428662c2b9?rule=ecg_mp_eps$_82.jpg,https://link.marktplaats.nl/m2220798624,51.801059940684,4.3940170220769,20.0,Ophalen of Verzenden,Vandaag,Ophalen of Verzenden,PC
m2220804004,Canon eos 1000f met Sigma zoom lens.,Werkt goed. Mag weg omdat ik stop met verzamelen.,https://images.marktplaats.com/api/v1/listing-mp-p/images/82/82eaf6d4-b748-4190-ba0c-d8c917f55023?rule=ecg_mp_eps$_82.jpg,https://link.marktplaats.nl/m2220804004,52.799005585489,6.0953647958901,15.0,Verzenden,Vandaag,Verzenden,Ibo
m2220813435,Analoog Canon EOS300,Analoog canon eis300,https://images.marktplaats.com/api/v1/listing-mp-p/images/4c/4c996954-8ed5-4cab-afa6-0168c35be737?rule=ecg_mp_eps$_82.jpg,https://link.marktplaats.nl/m2220813435,52.144290914545,6.2064017879489,45.0,Ophalen of Verzenden,Vandaag,Ophalen of Verzenden,Ruud
m2220790733,Zenit 3M spiegelreflex Sovjet camera fototoestel,"Dit is een werkende zenit 3m camera gemaakt in de sovjet unie, uit circa 1962/1970. Alleen bieden op marktplaats. Eventuele verzen",https://images.marktplaats.com/api/v1/listing-mp-p/images/3d/3da8a5a2-0305-4407-beb0-26b643fee262?rule=ecg_mp_eps$_82.jpg,https://link.marktplaats.nl/m2220790733,52.431904780006,4.6575690697582,0.0,Ophalen of Verzenden,Vandaag,Ophalen of Verzenden,Ron
m2220802903,Miranda Sensomat RE + 1.8/50mm,Camera ziet er als nieuw uit. Afdrukken gaat maar spiegel blijft omhoog staan. Ik weet niet of dat komt omdat er geen batterij in ,https://images.marktplaats.com/api/v1/listing-mp-p/images/4a/4aadbdee-9caa-4ea3-8e91-59ca669091ce?rule=ecg_mp_eps$_82.jpg,https://link.marktplaats.nl/m2220802903,52.110355005733,4.3728740572016,25.0,Ophalen of Verzenden,Vandaag,Ophalen of Verzenden,J. van der Wagt
m2220763068,Asahi Pentax,De asahi pentax is een 35mm camera van asahi optica. Hij werd geleverd met de super takumar 55mm f/2. De camera werd geproduceerd ,https://images.marktplaats.com/api/v1/listing-mp-p/images/55/55b561d0-43fa-4369-aff1-625ecc1713b8?rule=ecg_mp_eps$_82.jpg,https://link.marktplaats.nl/m2220763068,52.654648010885,4.8198441960289,0.0,Ophalen of Verzenden,Vandaag,Ophalen of Verzenden,noord
m2220759250,Bronica Zenza SQ-B camera met toebehoren,Complete bronica zenza sq-b 6x6 reflex camera met 80 mm f2.8 Lens in nieuwstaat! Nog nooit gebruikt. Camera gaat samen met de sq-a,https://images.marktplaats.com/api/v1/listing-mp-p/images/be/be77b229-cdd8-482b-959b-bbc5ba7286ab?rule=ecg_mp_eps$_82.jpg,https://link.marktplaats.nl/m2220759250,52.208909458404,5.1665575177063,800.0,Ophalen,Vandaag,Ophalen,Arnica
m2220766788,mamiya 645 1000S,"Mamiya 645 1000s 45mm lens 1:2,8 sekor 80mm lens 1:2,8 sekor 150mm lens 1:4 sekor prisma zoeker met werkende belichtings meter wai",https://images.marktplaats.com/api/v1/listing-mp-p/images/96/96f8f788-0bb9-40cb-8030-19580583161e?rule=ecg_mp_eps$_82.jpg,https://link.marktplaats.nl/m2220766788,52.169778706505,5.3499291337099,400.0,Ophalen of Verzenden,Vandaag,Ophalen of Verzenden,Peter
m2220763068,Asahi Pentax,De asahi pentax is een 35mm camera van asahi optica. Hij werd geleverd met de super takumar 55mm f/2. De camera werd geproduceerd ,https://images.marktplaats.com/api/v1/listing-mp-p/images/55/55b561d0-43fa-4369-aff1-625ecc1713b8?rule=ecg_mp_eps$_82.jpg,https://link.marktplaats.nl/m2220763068,52.654648010885,4.8198441960289,0.0,Ophalen of Verzenden,Vandaag,Ophalen of Verzenden,noord
m2220759330,Nikon F-801 body,"In zeer goede staat. F4 techniek in een ""eenvoudiger verpakking"". Hij werkt op 4x een aa batterij.",https://images.marktplaats.com/api/v1/listing-mp-p/images/e7/e7d11727-e19b-4b81-987b-cf775d42cf0d?rule=ecg_mp_eps$_82.jpg,https://link.marktplaats.nl/m2220759330,52.654648010885,4.8198441960289,0.0,Ophalen of Verzenden,Vandaag,Ophalen of Verzenden,noord
m2220763733,Diverse Nikon,"2x nikkormat slr body 1x zoom nikkor 1:4,5 f50 tot f300 (goede staat!) 3X nikkor f50 1:2 waarvan 1 top conditie 1x nikkor 135 1:3.",https://images.marktplaats.com/api/v1/listing-mp-p/images/91/914e4be6-c2fd-4ecf-82fa-8bdef174a5b1?rule=ecg_mp_eps$_82.jpg,https://link.marktplaats.nl/m2220763733,52.451204663103,4.7732626134119,200.0,Verzenden,Vandaag,Verzenden,arjen
m2196048988,canon eos 700 met lens en riem,Canon eos 700 met orginele 35-80mm lens in pefecte staat.,https://images.marktplaats.com/api/v1/listing-mp-p/images/fa/fa42d752-62a3-43e6-8cdb-d3a38ae25dd7?rule=ecg_mp_eps$_82.jpg,https://link.marktplaats.nl/m2196048988,51.473013514042,3.8154289846009,25.0,Ophalen of Verzenden,Vandaag,Ophalen of Verzenden,studiobeam
m2206742841,Canon eos 500 met 38-76,In goede werkende staat verkeerende camera met objectief ogineel canon,https://images.marktplaats.com/api/v1/listing-mp-p/images/ae/ae30b580-0b23-4216-a7b1-469adcd44323?rule=ecg_mp_eps$_82.jpg,https://link.marktplaats.nl/m2206742841,51.473013514042,3.8154289846009,25.0,Verzenden,Vandaag,Verzenden,studiobeam
m2220766576,Canon spiegelreflex camera/lens,"Canon 40d gebruikt incl oplader en batterijen canon 1000d gebruikt incl batterij lens 28-135mm f3,5-6.0 Cameratas hama alles mag s",https://images.marktplaats.com/api/v1/listing-mp-p/images/a2/a2fbb074-9426-49c6-9ffb-2a81964afaf5?rule=ecg_mp_eps$_82.jpg,https://link.marktplaats.nl/m2220766576,52.598002363072,6.379262871251,0.0,Ophalen of Verzenden,Vandaag,Ophalen of Verzenden,K.Jansen
m2220732437,Yashica MIII,Fully working - just not using as much compared to my others will include strap if asking price is paid excellent condition and co,https://images.marktplaats.com/api/v1/listing-mp-p/images/b6/b66a7ddc-56ab-4056-9b4d-b7eef716834f?rule=ecg_mp_eps$_82.jpg,https://link.marktplaats.nl/m2220732437,52.388768525637,4.8765492434266,70.0,Ophalen,Vandaag,Ophalen,Rol
m2220717777,Bronica ETRS met Zenzanon MC 75mm F/2.8,Bronica etrs met zenzanon mc 75mm f/2.8 Goed werkende 6x4.5 Middenformaat camera. Electronica en sluitertijden lopen goed. Camera ,https://images.marktplaats.com/api/v1/listing-mp-p/images/05/05db6361-8205-481f-b1db-5690e2e06a52?rule=ecg_mp_eps$_82.jpg,https://link.marktplaats.nl/m2220717777,51.372026812735,6.1703089535393,0.0,Ophalen of Verzenden,Vandaag,Ophalen of Verzenden,Glen
m2220725610,Pentax ME met 50 mm lens,In werkende staat,https://images.marktplaats.com/api/v1/listing-mp-p/images/a0/a01f0ea1-05f2-47a8-81fc-a36a0a4ceaa6?rule=ecg_mp_eps$_82.jpg,https://link.marktplaats.nl/m2220725610,52.087888948585,4.8659545337132,50.0,Ophalen of Verzenden,Vandaag,Ophalen of Verzenden,Harald
m2220727334,Pentax fototoestel Zoom 70X,Retro fototoestel werkt nog.,https://images.marktplaats.com/api/v1/listing-mp-p/images/af/af2eb227-2bf0-44aa-80db-ebdcf49de5fd?rule=ecg_mp_eps$_82.jpg,https://link.marktplaats.nl/m2220727334,51.844162810367,4.9650305524874,0.0,Ophalen,Vandaag,Ophalen,Jelle
m2220718472,Nikon F80 met lens,"Goede staat, inc. Lens en draagband.",https://images.marktplaats.com/api/v1/listing-mp-p/images/ac/ac339bad-5c77-496f-8685-070888f42a6b?rule=ecg_mp_eps$_82.jpg,https://link.marktplaats.nl/m2220718472,52.372671126294,4.9042972744541,95.0,Verzenden,Vandaag,Verzenden,Smo
m2220725476,Canon EOS 300/300qd,"Analoge spiegelreflexcamera, met alle toebehoren: body, 28-200 zoomlens, flitser, cameratas, boekjes, batterijen en zelfs nog een ",https://images.marktplaats.com/api/v1/listing-mp-p/images/1d/1de20c1a-0e1c-4e2d-b0bb-5736c440b8f4?rule=ecg_mp_eps$_82.jpg,https://link.marktplaats.nl/m2220725476,52.386459871121,4.6423853622356,0.0,Ophalen of Verzenden,Vandaag,Ophalen of Verzenden,Laura
m2220742798,Canon AE 1 analoge camera met extra sigma zoomlens 75-225 mm,Set met camera canon ae 1 met lens fd 35-70 mm 1:4 sigma one touch zoomlens f = 75-250 mm canon opwerkingen a braun staafflitser i,https://images.marktplaats.com/api/v1/listing-mp-p/images/cb/cb22b8b3-0f43-4206-a4c8-c7512b3d463f?rule=ecg_mp_eps$_82.jpg,https://link.marktplaats.nl/m2220742798,53.100073079728,6.1156303592994,0.0,Ophalen,Vandaag,Ophalen,fokkema
m2220742286,2x canon ixus analoog aps,Toestellen lang niet gebruikt dus geen batterijen of rolletjes. Kan de werking dus ook niet controleren. Beschikbaarheid aps rolle,https://images.marktplaats.com/api/v1/listing-mp-p/images/4c/4c5e5c88-c05b-4f46-b5d3-82ef496311a6?rule=ecg_mp_eps$_82.jpg,https://link.marktplaats.nl/m2220742286,53.21624261804,6.5461614937313,25.0,Ophalen of Verzenden,Vandaag,Ophalen of Verzenden,Niek
m2220718744,Canon prima 5 analoge camera,"Maakt foto,s maar rolletje draait niet mee.iets voor verzamelaar of techneut ik verzend niet enkel iphalen . Kijk ook mijn andere ",https://images.marktplaats.com/api/v1/listing-mp-p/images/2d/2d5f178d-d9df-4d4a-8ade-6f7204d0c3ca?rule=ecg_mp_eps$_82.jpg,https://link.marktplaats.nl/m2220718744,51.886321383131,4.5566161354791,0.0,Ophalen,Vandaag,Ophalen,Jacky
m2220733236,Canon EOS 500 N met lens en tas,Analoge canon eos 500 n body met canon efs 18-55 mm lens en lowepro camera tas .,https://images.marktplaats.com/api/v1/listing-mp-p/images/ef/ef20cdd3-9e6a-4094-99f2-a69876ae4c13?rule=ecg_mp_eps$_82.jpg,https://link.marktplaats.nl/m2220733236,52.223481703477,4.8649528910881,55.0,Ophalen,Vandaag,Ophalen,Harry
m2220712042,Hasselblad 500c,"Hasselblad 500c spreekt voor zichzelf een hele fijne camera, maar helaas gebruik ik hem niet meer.",https://images.marktplaats.com/api/v1/listing-mp-p/images/18/18994e19-895b-4f4c-80d5-000d76595657?rule=ecg_mp_eps$_82.jpg,https://link.marktplaats.nl/m2220712042,52.033349536365,4.1820403570529,950.0,Ophalen of Verzenden,Vandaag,Ophalen of Verzenden,Ellie Zand
m2220704870,Pentax Espio 738,"Een van de laatste analoge camera’s van pentax, die befaamd zijn voor hun lens coatings. Vaste prijs, laagbieders worden genegeerd",https://images.marktplaats.com/api/v1/listing-mp-p/images/ea/ea6c5f16-1599-4171-8ecd-a90e1e55b3f0?rule=ecg_mp_eps$_82.jpg,https://link.marktplaats.nl/m2220704870,52.236917229735,5.990070214576,50.0,Verzenden,Vandaag,Verzenden,Piet
m2220703899,Pentax Zoom 70-X,Mooi chunky retro design met de befaamde lens coating van pentax uiteraard met als bonus een hele fijne originele strap. Vaste pri,https://images.marktplaats.com/api/v1/listing-mp-p/images/f4/f4590b52-62d4-49a8-91e2-b4c9033d2124?rule=ecg_mp_eps$_82.jpg,https://link.marktplaats.nl/m2220703899,52.236917229735,5.990070214576,60.0,Verzenden,Vandaag,Verzenden,Piet
m2220700464,Canon EOS 500n + Canon 28-80 F3.5-5.6,"Hierbij bied ik een canon eos 500n met passende canon 28-80 f3.5-5.6 Aan.  Recent werkend getest, bij ophalen te testen indien gew",https://images.marktplaats.com/api/v1/listing-mp-p/images/fb/fb851de4-bccb-49ec-9834-9338be58c81e?rule=ecg_mp_eps$_82.jpg,https://link.marktplaats.nl/m2220700464,52.265030090837,6.8071585760913,30.0,Ophalen of Verzenden,Vandaag,Ophalen of Verzenden,Bram_Jacobs
m2220702765,Canon EOS 500n + Canon 28-70 f3.5-4.5 II,"Hierbij bied ik een canon eos 500n en canon 28-70 f3.5-4.5 Ii aan recent werkend getest, bij ophalen te testen indien gewenst. Let",https://images.marktplaats.com/api/v1/listing-mp-p/images/53/5357c050-e1e9-4020-b7e4-137935cb182a?rule=ecg_mp_eps$_82.jpg,https://link.marktplaats.nl/m2220702765,52.265030090837,6.8071585760913,35.0,Ophalen of Verzenden,Vandaag,Ophalen of Verzenden,Bram_Jacobs
m2163334947,Hasselblad 503CW body in originele doos,"Zeer fraaie hasselblad 503cw body , heeft cla gehad. Getest en perfect werkend. Foto's 9 en 10 zijn overbelicht, om de vernieu",https://images.marktplaats.com/api/v1/listing-mp-p/images/2a/2af339f1-6dba-49ca-9d88-f2d883401b3f?rule=ecg_mp_eps$_82.jpg,https://link.marktplaats.nl/m2163334947,52.541880754035,5.7130421887332,2199.0,Ophalen of Verzenden,Vandaag,Ophalen of Verzenden,Wilco Jansen
m2220680393,Polaroid cassette voor Mamiya,"Polaroid cassette voor mamiya, ziet er nog netjes uit, geen vieze rollen etc. Met opbergtasje. Voor de professional. Ophalen in am",https://images.marktplaats.com/api/v1/listing-mp-p/images/29/29f923c9-c587-4902-a2bb-04a75e183c8a?rule=ecg_mp_eps$_82.jpg,https://link.marktplaats.nl/m2220680393,52.371417984851,4.9423130982013,45.0,Ophalen,Vandaag,Ophalen,Fotocam
m2220680011,Vintage rollei 35,Goede conditie.,https://images.marktplaats.com/api/v1/listing-mp-p/images/cf/cfae9c59-ab0c-476e-958c-070b97cc8df4?rule=ecg_mp_eps$_82.jpg,https://link.marktplaats.nl/m2220680011,51.472926991323,5.4750354074346,0.0,Ophalen of Verzenden,Vandaag,Ophalen of Verzenden,Paul
m2220689039,Nikon F Apollo met  eye level finder,"Nikon f apollo met eye level finder. Tijden lopen goed ook de lange, ziet er voor z'n leeftijd nog mooi uit. Ophalen heeft de ",https://images.marktplaats.com/api/v1/listing-mp-p/images/3d/3d18f851-7748-47b0-ba85-298970ff0d09?rule=ecg_mp_eps$_82.jpg,https://link.marktplaats.nl/m2220689039,53.401518730648,6.6122895286791,0.0,Ophalen,Vandaag,Ophalen,Jaap
m2220686984,Canon EOS 300 analoge camera,Canon eos 300 analoge camera incl. Lens door over te gaan op digitaal is deze overbodig voor mij. Perfect in orde. Incl. Draagtas ,https://images.marktplaats.com/api/v1/listing-mp-p/images/fa/fa99c1a8-387c-4880-906a-365132994850?rule=ecg_mp_eps$_82.jpg,https://link.marktplaats.nl/m2220686984,50.843149758729,5.6473166918896,45.0,Ophalen of Verzenden,Vandaag,Ophalen of Verzenden,Rene
m2220693935,Canon T70 + 35-70 f3.5-4.5,Hierbij bied ik een canon t70 aan met een passende canon nfd 35-70 f3.5-4.5 Aan.  Recent getest. Indien nodig is testen ook mogeli,https://images.marktplaats.com/api/v1/listing-mp-p/images/13/13ccf607-f459-47c9-9aa4-7d1d731c130a?rule=ecg_mp_eps$_82.jpg,https://link.marktplaats.nl/m2220693935,52.265030090837,6.8071585760913,35.0,Ophalen of Verzenden,Vandaag,Ophalen of Verzenden,Bram_Jacobs
m2220693652,Ihagee Dresden balg voor Exakta camera's,Ihagee dresden balg voor exakta camera's marktplaats deze balg is voor analoge camera's,https://images.marktplaats.com/api/v1/listing-mp-p/images/62/623c4cb3-a552-47cb-8c22-cf427970fc76?rule=ecg_mp_eps$_82.jpg,https://link.marktplaats.nl/m2220693652,51.945419958405,5.9226389732545,95.0,Ophalen of Verzenden,Vandaag,Ophalen of Verzenden,vriedeo
m2220672516,Bronica sq-b,Complete set met dubbele achterwand 80mm f2.8 Lens 40mm f4.0 Groothoeklens is niet 100% en krijg je er gratis bij. (Los contactje),https://images.marktplaats.com/api/v1/listing-mp-p/images/bb/bb7e0bae-250e-4730-8f52-7a2e33e6966d?rule=ecg_mp_eps$_82.jpg,https://link.marktplaats.nl/m2220672516,53.335810498895,6.5839975849845,300.0,Ophalen,Vandaag,Ophalen,Heemstra
m2220662596,Pentax ME super,Te koop pentax me super camera met asahi lens smc pentax-m 1:1.7 50Mm met pallas 49mm uv kapje. In 2013 gekregen van mijn opa als ,https://images.marktplaats.com/api/v1/listing-mp-p/images/fd/fd027410-1b68-460f-89f9-71813221d251?rule=ecg_mp_eps$_82.jpg,https://link.marktplaats.nl/m2220662596,52.294717880065,5.9750117119296,0.0,Ophalen of Verzenden,Vandaag,Ophalen of Verzenden,maxime
m2220652550,Pentax Espio 140 in topstaat!,"Prachtige, goedwerkende camera.",https://images.marktplaats.com/api/v1/listing-mp-p/images/d3/d3089256-be7a-431b-b35b-3cc670c2e4b1?rule=ecg_mp_eps$_82.jpg,https://link.marktplaats.nl/m2220652550,53.258382870897,6.0461939627848,40.0,Verzenden,Vandaag,Verzenden,Heiko
m2220667572,"Super komplete set Pentax ME F, 3 lenzen, flitser","Super komplete set pentax me f, 3 lenzen, flitser maakt mooie foto’s(zie voorbeeldfoto’s) een prachtige set voor de analoge liefhe",https://images.marktplaats.com/api/v1/listing-mp-p/images/cb/cb80804f-c2e4-4f7d-bfbc-131f13597c2d?rule=ecg_mp_eps$_82.jpg,https://link.marktplaats.nl/m2220667572,51.219017339909,5.7546841347938,150.0,Verzenden,Vandaag,Verzenden,mgs
m2220669676,Pentax ME body met 2 objectieven,"Pentax me body uit 1976-1979 (los € 50), inclusief 2 goede objectieven en een 2.0 Teleconverter: tokina sd 70-210mm f4.0-5.6 ",https://images.marktplaats.com/api/v1/listing-mp-p/images/aa/aa8571d1-a9b4-4864-89c4-d9f4b07481da?rule=ecg_mp_eps$_82.jpg,https://link.marktplaats.nl/m2220669676,52.141721061545,5.379313216053,0.0,Ophalen of Verzenden,Vandaag,Ophalen of Verzenden,The Photo Company
m2220667008,Nikon D3200 spiegelreflexcamera  Kit + Telelens,Nikon d3200 spiegelreflexcamera + telelens camera is weinig gebruikt en wordt geleverd met een standaard 18-55mm kitlens en 1 accu,https://images.marktplaats.com/api/v1/listing-mp-p/images/e1/e1f3773d-ffa3-4aae-95f8-aa042f89c0b0?rule=ecg_mp_eps$_82.jpg,https://link.marktplaats.nl/m2220667008,52.255806833217,5.5906980413311,200.0,Ophalen of Verzenden,Vandaag,Ophalen of Verzenden,Salesman
m2220652383,Nikon F65,Analoog fotocamera van het merk nikon. Een f65. Beschermtasje zit erbij. Er moeten nieuwe batterijen in.,https://images.marktplaats.com/api/v1/listing-mp-p/images/4a/4acf319e-6538-4cce-b473-c808101ba008?rule=ecg_mp_eps$_82.jpg,https://link.marktplaats.nl/m2220652383,51.54651793301,4.7948238268403,75.0,Ophalen,Vandaag,Ophalen,Vanessa
m2220329361,Asahi Pentax ME   set,"Een aardige set van de asahi pentax me. Twee extra lenzen, twee filters (naast flitser), flitser en tas waar alles in past.",https://images.marktplaats.com/api/v1/listing-mp-p/images/ce/ce570c79-28ac-4f8a-a3e2-af35379ae18f?rule=ecg_mp_eps$_82.jpg,https://link.marktplaats.nl/m2220329361,51.92450403188,5.7128211563538,400.0,Ophalen,Vandaag,Ophalen,wsm
m2220345297,Mamiya c220 met 80mm lens,De camera werkt goed. Pluspunt van deze camera is dat je makkelijk focust omdat het matglas zo helder is. Verder is de camera ook ,https://images.marktplaats.com/api/v1/listing-mp-p/images/df/df569068-1518-425e-b10a-389d6b6fcd59?rule=ecg_mp_eps$_82.jpg,https://link.marktplaats.nl/m2220345297,52.129484485211,5.1934699502817,300.0,Ophalen of Verzenden,Vandaag,Ophalen of Verzenden,tweedehandsboeken
m2220607700,Prachtige Mamiya 645 1000s fotocamera met 3 lenzen,"Prachtige mamiya 645, middenformaatcamera. Ontzettend veel mooie foto's mee geschoten ( kunstacademie behaald ;) maar nu is he",https://images.marktplaats.com/api/v1/listing-mp-p/images/eb/eb6be48e-074c-46de-b6d3-5ea87c748b76?rule=ecg_mp_eps$_82.jpg,https://link.marktplaats.nl/m2220607700,51.682304168494,5.3144049256764,0.0,Ophalen,Vandaag,Ophalen,Josephine
m2220552678,Mamiya 645 Pro TL set,Hierbij bied ik mijn mooie mamiya set aan. Mamiya 645 pro tl body mamiya 645 ae finder fk402 mamiya 645 120 rolfilm cassette mamiy,https://images.marktplaats.com/api/v1/listing-mp-p/images/77/77c461c6-7d0a-4141-8db8-16ff0200212a?rule=ecg_mp_eps$_82.jpg,https://link.marktplaats.nl/m2220552678,52.280395551513,4.9546790922167,850.0,Ophalen of Verzenden,Vandaag,Ophalen of Verzenden,G.Broertjes
m2219608977,"Mamiya M645 1000s - Uitgebreide set! (45mm f/2.8, 80mm etc)","Ik verkoop mijn zeer uitgebreide set van de mamiya m645 1000s analoge medium format camera. Een echte parel, ik heb er jarenlang p",https://images.marktplaats.com/api/v1/listing-mp-p/images/0c/0c15369f-381d-4128-8e04-ffa6aea9540e?rule=ecg_mp_eps$_82.jpg,https://link.marktplaats.nl/m2219608977,51.8902136961,4.4671703548385,1200.0,Ophalen,Vandaag,Ophalen,Flo
m2220508465,Rollei 45 Prism Viewfinder Zoeker Rolleiflex 2.8GX 2.8F 2.8,Rollei 45 prism viewfinder zoeker rolleiflex 2.8Gx 2.8F 2.8 Nieuwstaat! Vaste prijs! Bij vragen kunt u altijd even berichten kijk ,https://images.marktplaats.com/api/v1/listing-mp-p/images/1e/1e5babe2-263f-4a54-b11b-18227c0dba5c?rule=ecg_mp_eps$_82.jpg,https://link.marktplaats.nl/m2220508465,52.623247346877,4.7399505349611,695.0,Ophalen of Verzenden,Vandaag,Ophalen of Verzenden,HW
m2220323166,Rolleiflex wide,Wellicht de meest gewilde en bijzondere camera van rolleiflex.  Deze camera is klaar voor gebruik met kleine sporen van gebruik op,https://images.marktplaats.com/api/v1/listing-mp-p/images/87/874fe293-b6eb-44c0-9dbf-ac96aeb4ff9e?rule=ecg_mp_eps$_82.jpg,https://link.marktplaats.nl/m2220323166,52.030106709774,4.1675251113581,3500.0,Ophalen of Verzenden,Vandaag,Ophalen of Verzenden,theanalogcamerastore
m2220323244,Rollei Rolleimat F,"In uitmuntende staat,  rollei rollermatic f in case zie foto's  vraag gerust",https://images.marktplaats.com/api/v1/listing-mp-p/images/7d/7d252e06-48f1-4d56-920a-7cdb1434b548?rule=ecg_mp_eps$_82.jpg,https://link.marktplaats.nl/m2220323244,51.95240970375,4.4677654776388,60.0,Verzenden,Vandaag,Verzenden,schouten/siebel
m2220558213,rollei b35,Zie foto's. Opruiming verzameling.,https://images.marktplaats.com/api/v1/listing-mp-p/images/91/9117639e-2845-45bb-b362-80c97346d98f?rule=ecg_mp_eps$_82.jpg,https://link.marktplaats.nl/m2220558213,52.730251983275,6.8971892801248,0.0,Ophalen,Vandaag,Ophalen,Dirk
m2220508465,Rollei 45 Prism Viewfinder Zoeker Rolleiflex 2.8GX 2.8F 2.8,Rollei 45 prism viewfinder zoeker rolleiflex 2.8Gx 2.8F 2.8 Nieuwstaat! Vaste prijs! Bij vragen kunt u altijd even berichten kijk ,https://images.marktplaats.com/api/v1/listing-mp-p/images/1e/1e5babe2-263f-4a54-b11b-18227c0dba5c?rule=ecg_mp_eps$_82.jpg,https://link.marktplaats.nl/m2220508465,52.623247346877,4.7399505349611,695.0,Ophalen of Verzenden,Vandaag,Ophalen of Verzenden,HW
m2220560679,Nikon FM2 + Nikon D100 + div lenzen,"Te koop/ruil aangeboden; - alles in 1 koop - - nikon fm2 als meest recent gebruikt, heel veel plezier van gehad maar vanwege tekor",https://images.marktplaats.com/api/v1/listing-mp-p/images/17/17f92763-9971-4914-a632-0bce5682b855?rule=ecg_mp_eps$_82.jpg,https://link.marktplaats.nl/m2220560679,52.041430227909,4.7199870718236,0.0,Ophalen,Vandaag,Ophalen,Hagen
m2220565728,Nikon L35AF analoge camera .,Nog zeer mooie en goede analoge nikon camera. Nikon l35af met lichtsterke lens. Met boekje en originele hoes en een uv filter welk,https://images.marktplaats.com/api/v1/listing-mp-p/images/2d/2dab6b7e-4c2f-4618-b9c9-96f7ba46bab1?rule=ecg_mp_eps$_82.jpg,https://link.marktplaats.nl/m2220565728,51.459480246966,3.562337796728,175.0,Ophalen of Verzenden,Vandaag,Ophalen of Verzenden,jaro
m2220543796,Nikon D3200 spiegelreflexcamera + Telelens,Nikon d3200 spiegelreflexcamera + telelens camera is weinig gebruikt en wordt geleverd met tas en een standaard 18-55mm kitlens en,https://images.marktplaats.com/api/v1/listing-mp-p/images/cd/cd6aae44-3afc-4de0-858c-33f72ee2e5a9?rule=ecg_mp_eps$_82.jpg,https://link.marktplaats.nl/m2220543796,52.255806833217,5.5906980413311,200.0,Ophalen of Verzenden,Vandaag,Ophalen of Verzenden,Salesman
a1025276459,"FOTOHANDEL DELFSHAVEN koopt ook in: oa. Leica, Nikon, Contax",Fotohandel delfshaven is een unieke winkel gespecialiseerd in de betere analoge fotoapparatuur. Wij hebben altijd een enorm aanbod,https://mp.images.icas.io/api/v1/a6519ad0/images/d8/d8d5b40d-bbcf-436b-af6b-b6267fc56641?rule=eps_82.JPG,https://link.marktplaats.nl/a1025276459,52.01310729980469,4.360111236572266,0.0,Ophalen,Vandaag,Ophalen,Fotohandel Delfshaven
m2220471805,Nikon body - Nikon moterdrive - Nikon 50mm Pancake lens.,.. -Nikon fe body + nieuwe batt. -Nikon md-12 motordrive + nieuwe batt. -Nikon 50mm 1.8 Pancake objectief. -Nikon set verkeerd in ,https://images.marktplaats.com/api/v1/listing-mp-p/images/bb/bb04a3f0-5c7b-4a45-b47f-eebe3cff85b6?rule=ecg_mp_eps$_82.jpg,https://link.marktplaats.nl/m2220471805,52.656950335724,4.8233568877883,0.0,Ophalen,Vandaag,Ophalen,Jordin
m2220383674,Nikon F2 met 50 en 135mm lens,Onverslijtbare klassieker deze nikon f2. Analoge liefhebbers weten wat ie kan. Werkt nog prima. Alles origineel. Wordt geleverd in,https://images.marktplaats.com/api/v1/listing-mp-p/images/b0/b0ba8910-679d-46c0-bfe1-1c457a810e0b?rule=ecg_mp_eps$_82.jpg,https://link.marktplaats.nl/m2220383674,52.607766489942,4.7216196759934,200.0,Verzenden,Vandaag,Verzenden,Marc
m2220440930,2 winders van nikon,2 winders geen idee of ze werken helaas kan ik dat niet meer navragen,https://images.marktplaats.com/api/v1/listing-mp-p/images/97/97bb7e6c-0a63-44e6-bcc8-cd22c4aafe59?rule=ecg_mp_eps$_82.jpg,https://link.marktplaats.nl/m2220440930,52.255737337265,6.2216642451865,0.0,Ophalen of Verzenden,Vandaag,Ophalen of Verzenden,paula
m2220452928,Nikon F801-S analoge camera,"Vanwege het verkleinen van mijn camera verzameling bied ik een nikon f801-s analoge camera in een mooie, werkende staat aan. Er zi",https://images.marktplaats.com/api/v1/listing-mp-p/images/f9/f9e5486b-2966-4e3c-8bac-4e871b6bcc6c?rule=ecg_mp_eps$_82.jpg,https://link.marktplaats.nl/m2220452928,52.090975820073,5.092542241623,75.0,Ophalen,Vandaag,Ophalen,Pieter
m2220522017,Nikon F50 analoge spiegelreflex,Spiegelreflex nikon f50 analoog. Inclusief 35-80 lens. Tas en gebruiksaanwijzing.,https://images.marktplaats.com/api/v1/listing-mp-p/images/d8/d836c07b-d484-49eb-9be0-ae15bca2d609?rule=ecg_mp_eps$_82.jpg,https://link.marktplaats.nl/m2220522017,52.025518994092,5.2406989771752,50.0,Ophalen of Verzenden,Vandaag,Ophalen of Verzenden,JB
m2220409036,film camera Nikon Nuvis mimi,"Nikon nuvis mimi, aps film camera van ongeveer 1996 nikonlens 25 mm 1:4 macro  verzendkosten koper. (Verzendkosten zijn nu iets ho",https://images.marktplaats.com/api/v1/listing-mp-p/images/bd/bdbfafc7-8590-4cad-b947-77a6c614cdd7?rule=ecg_mp_eps$_82.jpg,https://link.marktplaats.nl/m2220409036,51.986748310853,4.5904825113282,10.0,Ophalen of Verzenden,Vandaag,Ophalen of Verzenden,Hannie
m2220343025,Nikon f3 28mm lens flits adapter en dw-3 zoeker,Nikon f3 met verschillende accessoires: dw-3 waist level view finder as-4 flash unit coupler grip van cameradactyl (rood) 28mm len,https://images.marktplaats.com/api/v1/listing-mp-p/images/a9/a9103c03-f1ff-44e4-877d-c9dae50d33cd?rule=ecg_mp_eps$_82.jpg,https://link.marktplaats.nl/m2220343025,52.129484485211,5.1934699502817,0.0,Ophalen of Verzenden,Vandaag,Ophalen of Verzenden,tweedehandsboeken
m2220315367,Nikon F50 met AF Nikkor 28-80mm en 35-80mm (ongetest),Nikon f50 met af nikkor 28-80mm en 35-80mm (ongetest) totaal ongetest (geen batterijen voorhanden)  wordt geleverd als afgebeeld z,https://images.marktplaats.com/api/v1/listing-mp-p/images/e5/e53578ff-31c6-4803-b291-c4941ba88cbc?rule=ecg_mp_eps$_82.jpg,https://link.marktplaats.nl/m2220315367,50.971321178746,5.976863775125,39.99,Ophalen of Verzenden,Vandaag,Ophalen of Verzenden,WilQ
m2220375091,Nikon N2020,Amerikaans model n2020/ (als nikon f501) met 50 mm lens en 28 mm autofocus lens. Lees meer over deze camera op aperturepreview. Sh,https://images.marktplaats.com/api/v1/listing-mp-p/images/51/513061d4-a350-4633-a420-615dc8ce4bc3?rule=ecg_mp_eps$_82.jpg,https://link.marktplaats.nl/m2220375091,52.178265213924,6.2143352297642,100.0,Verzenden,Vandaag,Verzenden,Alphons Hesselmann
m2220479204,Nikon D70 S,Aangeboden nikon d70 s body lens tamron 17-50 mm 1:2.8 Uv filter zonnekap draagriem oplader telelens nikon lens af-s nikkor 70-300,https://fotohandeldelfshaven.b-cdn.net/wp-content/uploads/2024/02/52301.jpg,https://link.marktplaats.nl/m2220479204,51.520528758243,5.9723112382238,0.0,Ophalen,Vandaag,Ophalen,LP
m2220407383,"Nikon Coolpix S2700 - Compact, 16 MP, 6x Zoom, (Assen)",De nikon coolpix s2700 is een stijlvolle en slanke compactcamera met krachtige functies! Met 16 megapixels en een 6x optische zoom,https://images.marktplaats.com/api/v1/listing-mp-p/images/df/dfc96368-5568-42fc-adbf-d151d29a9e6d?rule=ecg_mp_eps$_82.jpg,https://link.marktplaats.nl/m2220407383,52.996766789498,6.5639518879118,99.0,Ophalen of Verzenden,Vandaag,Ophalen of Verzenden,Foto-Groep Assen
m2220424762,NIKON N75  analoog; zelfde als F75 met 28-80 mm. lens,Nikon n75 (of ook f75); analoge camera met veel mogelijkhedenin het menu; lens nikon af nikkor 28-80 mm. 1: 3.3-5.6 G. Camera in g,https://images.marktplaats.com/api/v1/listing-mp-p/images/24/24150c5f-8cbd-4b24-adb6-d80111c967d1?rule=ecg_mp_eps$_82.jpg,https://link.marktplaats.nl/m2220424762,51.827596562278,4.128091198669,30.0,Verzenden,Vandaag,Verzenden,A de Jong
m2218528047,Canon Prima 5,"Canon prima 5 analoge point and shoot camera. Getest met film, werkt naar behoren.",https://images.marktplaats.com/api/v1/listing-mp-p/images/11/1106d967-18a2-4f9f-a37b-c9ea26a306e5?rule=ecg_mp_eps$_82.jpg,https://link.marktplaats.nl/m2218528047,51.586369210019,5.1381428736371,0.0,Ophalen of Verzenden,Vandaag,Ophalen of Verzenden,Swaans
m2220349953,Canon A1 Inclusief lenzen/winder,Hele mooie canon a1 inclusief winder en verschillende lichtsterke sigma lenzen voor canon fd  allemaal in een case zie foto's ,https://images.marktplaats.com/api/v1/listing-mp-p/images/68/68d2ab0e-9088-467d-b545-4498b7cc7e43?rule=ecg_mp_eps$_82.jpg,https://link.marktplaats.nl/m2220349953,51.90867964374,4.2340682015579,0.0,Ophalen of Verzenden,Vandaag,Ophalen of Verzenden,I Love Chess
m2220580607,Canon AF35M II  Lomografie!,Werkt 100% incl batteri.jen,https://images.marktplaats.com/api/v1/listing-mp-p/images/cd/cd02442c-94ec-4a23-9ba0-1f43ea679d83?rule=ecg_mp_eps$_82.jpg,https://link.marktplaats.nl/m2220580607,52.666088705599,4.7536376236182,0.0,Ophalen of Verzenden,Vandaag,Ophalen of Verzenden,R Brink
m2220450873,Mooie Canon A1 spiegelreflex camera,Met canon zoom lens fd 35-70mm 1:4.   Ik verkoop dit omdat ik hem nooi gebruik. Met braun flitser en handvat en ruime tas.,https://images.marktplaats.com/api/v1/listing-mp-p/images/75/75b49218-4f4f-4eed-ba83-aa8567cb0898?rule=ecg_mp_eps$_82.jpg,https://link.marktplaats.nl/m2220450873,52.308203482603,5.6330131222636,200.0,Verzenden,Vandaag,Verzenden,den Boer
m2220368546,Canon A1 Camera met 50mm Canon Lens FD f/1.4 (NIEUWSTAAT). I,Canon a1 camera met 50mm canon lens fd f/1.4 (Nieuwstaat). Is een sleetse paraat tas bij en toestel moet nieuwe batterij. Eventuel,https://images.marktplaats.com/api/v1/listing-mp-p/images/a4/a47b96f4-6219-48e8-9535-62772202d8a0?rule=ecg_mp_eps$_82.jpg,https://link.marktplaats.nl/m2220368546,53.062334129073,5.5151243920855,150.0,Ophalen of Verzenden,Vandaag,Ophalen of Verzenden,Gerlof
m2220353099,"Canon A1 + FD 50mm 1.8 + foudraal + handleiding, CLA","Te koop: canon a1 met lens, alles werkt. De camera is in 2021 nagelopen en gekalibreerd, bon aanwezig. Ook nog een handleiding, fo",https://images.marktplaats.com/api/v1/listing-mp-p/images/51/5149fe0f-b304-49d4-8b3a-fcf36ed37bd3?rule=ecg_mp_eps$_82.jpg,https://link.marktplaats.nl/m2220353099,52.485773596993,4.6482809782774,100.0,Ophalen of Verzenden,Vandaag,Ophalen of Verzenden,Thomas
m2220477191,Canon AE-1 program body - Canon motordrive - Canon 50mm 1.4.,.. - Canon ae-1 program body + nieuwe batt. - Canon ma motor drive winder + nieuwe batt. - Canon fd 50mm 1.4 Lichtsterk objectief ,https://images.marktplaats.com/api/v1/listing-mp-p/images/88/88498a84-a241-423d-a24f-9683150742d1?rule=ecg_mp_eps$_82.jpg,https://link.marktplaats.nl/m2220477191,52.656950335724,4.8233568877883,0.0,Ophalen,Vandaag,Ophalen,Jordin
m2220428028,Canon A1 analoge camera met Canon 35-70 lens,Canon a1 analoge camera met canon 35-70 lens,https://images.marktplaats.com/api/v1/listing-mp-p/images/62/62d2c78e-2323-4d5a-a79f-3ee59d9c46bd?rule=ecg_mp_eps$_82.jpg,https://link.marktplaats.nl/m2220428028,51.882677252439,5.3042125432561,250.0,Ophalen,Vandaag,Ophalen,An
m2220543351,Canon prima 5 analoge camera.,"Canon prima 5 analoge camera.maakt foto,s maar rolletje draait niet mee.optisch in nieuw staat.iets voor de kenner of verzamelaar ",https://images.marktplaats.com/api/v1/listing-mp-p/images/41/414992cf-260d-4dd5-a88a-28824e71ec99?rule=ecg_mp_eps$_82.jpg,https://link.marktplaats.nl/m2220543351,51.886321383131,4.5566161354791,0.0,Ophalen,Vandaag,Ophalen,Jacky
m2220270530,Canon AE-1,"Canon ae-1, camera is in een goede staat met juiste sluitertijden en een goede lichtmeter en geen lichtlekken, zoeker heeft wat st",https://images.marktplaats.com/api/v1/listing-mp-p/images/86/861906aa-5041-4e52-a282-8f085d33d23d?rule=ecg_mp_eps$_82.jpg,https://link.marktplaats.nl/m2220270530,51.179966755479,6.013699735246,100.0,Verzenden,Vandaag,Verzenden,Remy
m2220310324,CANON PRIMA ZOOM 105,"Perfect werkende canon! Volledig getest! Komt met een nieuwe batterij, etui en nl gebruiksaanwijzing! Opsturen a 7 euro is mogelij",https://images.marktplaats.com/api/v1/listing-mp-p/images/ac/ace6426b-11f4-46ee-a0ed-32f1528fda20?rule=ecg_mp_eps$_82.jpg,https://link.marktplaats.nl/m2220310324,52.416371755383,4.6526253867878,25.0,Ophalen of Verzenden,Vandaag,Ophalen of Verzenden,peter
m2220464008,Canon TC-80N3,"Canon tc-80n3, timelapse / timer remote controller. Werkt naar behoren.  Eenmalig gebruikt, heeft enkele jaren stilgelegen.  Verze",https://images.marktplaats.com/api/v1/listing-mp-p/images/f3/f3017dfc-69c3-4f74-ad0a-25c7a88d50c7?rule=ecg_mp_eps$_82.jpg,https://link.marktplaats.nl/m2220464008,52.785434870761,6.8954003927677,15.0,Ophalen of Verzenden,Vandaag,Ophalen of Verzenden,Ferdi
m2220531608,Zoom Lens 75-250 mm voor Canon analoog,Zoomlens sigma voor canon a-1 of ae-1 merk: sigma met canon-vatting  voor bijvoorbeeld canon a-1 of ae-1 lichtsterkte 4.0 Bij 75 m,https://images.marktplaats.com/api/v1/listing-mp-p/images/c3/c35d2684-25c5-48bd-a8fd-d907e07fd825?rule=ecg_mp_eps$_82.jpg,https://link.marktplaats.nl/m2220531608,51.266729696485,3.9073748580121,90.0,Ophalen of Verzenden,Vandaag,Ophalen of Verzenden,Paul Groosman
m2220357444,Canon FDn 20-35 zoomlens,Een prachtige canon lens die helaas niet werkend is. Met veel plezier gebruikt en genoten van de character van de lens en veel mee,https://images.marktplaats.com/api/v1/listing-mp-p/images/4f/4fb5d56d-8625-411d-b94d-b024a5b8dbfd?rule=ecg_mp_eps$_82.jpg,https://link.marktplaats.nl/m2220357444,52.367761187862,4.8821209421492,0.0,Verzenden,Vandaag,Verzenden,Danny
m2220470932,Canon spiegelreflex Camera FT,Canon spiegelreflex camera ftwordt geleverd met leren tas,https://images.marktplaats.com/api/v1/listing-mp-p/images/2a/2ae04081-f860-4f61-ad69-b6d635520daf?rule=ecg_mp_eps$_82.jpg,https://link.marktplaats.nl/m2220470932,51.510405603448,5.4048825022289,0.0,Ophalen,Vandaag,Ophalen,Riet Tap
m2220428687,Canon Camera Prima Super 135 zoom,Compleet met boekje en een ongebruikt filmrolletje,https://images.marktplaats.com/api/v1/listing-mp-p/images/bf/bf83e3e3-68ed-4eec-8ac1-cf3ba52ae11d?rule=ecg_mp_eps$_82.jpg,https://link.marktplaats.nl/m2220428687,52.321217310319,4.5986855128336,35.0,Ophalen of Verzenden,Vandaag,Ophalen of Verzenden,Maida
m2220464216,CANON 7 35MM RANGE-FINDER KAMERA (Leica m39 connector),Canon 7 35 mm afstandszoeker analoge camera (leica m39 lens connector) fabrikantnummer: 806062 behuizing: - algemene optische staa,https://images.marktplaats.com/api/v1/listing-mp-p/images/cf/cfa2b64d-016e-49c3-8958-05776fc4e71e?rule=ecg_mp_eps$_82.jpg,https://link.marktplaats.nl/m2220464216,52.368587220689,4.88403502294,500.0,Verzenden,Vandaag,Verzenden,Kirk
m2220580059,Canon 5 Eos analoog plus fitsers  plus tas,Alles in één koop canon plus flitsers,https://images.marktplaats.com/api/v1/listing-mp-p/images/9e/9e641e55-26e3-4197-8f94-4be3ead15159?rule=ecg_mp_eps$_82.jpg,https://link.marktplaats.nl/m2220580059,52.502504650037,5.060299368851,40.0,Ophalen of Verzenden,Vandaag,Ophalen of Verzenden,jos
m2220454342,Canon EOS 300 35mm camera,Gratis ophalen voor de enthousiasteling. Jaren lang plezier van gehad maar nu over op digitaal. Het is de een analoge 35mm camera.,https://images.marktplaats.com/api/v1/listing-mp-p/images/a0/a01ca3bf-85ed-4bb7-8d29-9e494246214d?rule=ecg_mp_eps$_82.jpg,https://link.marktplaats.nl/m2220454342,52.270792626355,5.1797424983801,5.0,Ophalen of Verzenden,Vandaag,Ophalen of Verzenden,Taco Anema
m2220586474,Canon EOS 50 camera met 3 objectieven,I.v.m. Aanschaf systeemcamera bied ik deze canon eos 50 aan. Lens die nu aan de body zit is een traploos uitschuifbaar van  32 mm ,https://images.marktplaats.com/api/v1/listing-mp-p/images/a8/a880f739-5223-4d93-a241-1ed607083fec?rule=ecg_mp_eps$_82.jpg,https://link.marktplaats.nl/m2220586474,52.349484437178,5.6161745272852,0.0,Ophalen,Vandaag,Ophalen,Yvon
m2220270485,Canon Prima Zoom 65 AiAf 38-65mm analoge 35mm fotocamera.,Hierbij aangeboden de canon prima zoom 65 aiaf 38-65mm compacte analoge 35mm point and shoot fotocamera in goede werkende staat. D,https://images.marktplaats.com/api/v1/listing-mp-p/images/a5/a56cb2ee-310c-4bef-863c-05149d0023f7?rule=ecg_mp_eps$_82.jpg,https://link.marktplaats.nl/m2220270485,51.392627455331,4.3224974631702,50.0,Ophalen of Verzenden,Vandaag,Ophalen of Verzenden,Danny
m2220568573,Canon AF35M Foto camera Auto Focus met Flitser,Canon af35m auto focus met flitser - werkt goed - echte vintage gewoonmarktplaats is al meer dan 16 jaar actief op markplaats. All,https://images.marktplaats.com/api/v1/listing-mp-p/images/11/11680537-7224-4206-960d-11472e266996?rule=ecg_mp_eps$_82.jpg,https://link.marktplaats.nl/m2220568573,52.188633351558,6.8792737171455,49.95,Ophalen of Verzenden,Vandaag,Ophalen of Verzenden,GewoonMarktplaats
m2220555705,Zenit 12xp Zenit B camera's,Zie foto's. Opruiming verzameling.,https://images.marktplaats.com/api/v1/listing-mp-p/images/a8/a8961735-9880-4984-b14f-8f555519aa91?rule=ecg_mp_eps$_82.jpg,https://link.marktplaats.nl/m2220555705,52.730251983275,6.8971892801248,0.0,Ophalen,Vandaag,Ophalen,Dirk
m2220269819,Zenit horizon 202 - panorama 35 mm + tas,Zenit horizon 202 - camera met roterende lens voor het maken van panorama foto's inclusief draagtas  in goede staat,https://images.marktplaats.com/api/v1/listing-mp-p/images/54/543715b5-8cb4-49df-8659-124b91f1c1af?rule=ecg_mp_eps$_82.jpg,https://link.marktplaats.nl/m2220269819,51.498352065981,4.299207037074,275.0,Ophalen of Verzenden,Vandaag,Ophalen of Verzenden,Boeddha's Inboedel
m2220336911,Zenit B ( Зени́т B) met tas (Soviet M42 SRL) 1968–1977,"Mechanische russische camera body (uit de 60-70 er jaren) en vooral bekend als ""moeder camera"" van de beroemde helios-44",https://images.marktplaats.com/api/v1/listing-mp-p/images/d7/d75dd108-ffa3-4982-8f51-b66291b5f602?rule=ecg_mp_eps$_82.jpg,https://link.marktplaats.nl/m2220336911,50.971321178746,5.976863775125,13.0,Ophalen of Verzenden,Vandaag,Ophalen of Verzenden,willy
m2220498138,Pentax 6x7 met Takumar 105mm 2.4,Deze prachtige middenformaat camera met de meest gewilde lens is perfect voor portretten en werkt nog fantastisch.  Zowel de body ,https://images.marktplaats.com/api/v1/listing-mp-p/images/cd/cd1cd75a-8040-4839-9aa8-e962e93f1cea?rule=ecg_mp_eps$_82.jpg,https://link.marktplaats.nl/m2220498138,52.3705806799,4.8588591159447,1100.0,Ophalen of Verzenden,Vandaag,Ophalen of Verzenden,David
m2220435570,Nikkormat,Nr ft 4320469 hij doet het wel maar traag geen idee wat ermee is,https://images.marktplaats.com/api/v1/listing-mp-p/images/1a/1a0591fc-4927-4ed0-8ce0-da475469ccef?rule=ecg_mp_eps$_82.jpg,https://link.marktplaats.nl/m2220435570,52.255737337265,6.2216642451865,0.0,Ophalen of Verzenden,Vandaag,Ophalen of Verzenden,paula
m2220449292,Edixa Model D SLR Classic + toebehoren,Edixa reflex d-specificatie wirgin edixa reflex-d 35 mm spiegelreflexcamera sluiter 9 sec tot 1/1000 + b ingesteld met drie draaik,https://images.marktplaats.com/api/v1/listing-mp-p/images/5e/5e19b4d8-11f3-4abc-b0d2-ad92a25ce3f7?rule=ecg_mp_eps$_82.jpg,https://link.marktplaats.nl/m2220449292,52.69508154011,5.1875039631288,450.0,Ophalen of Verzenden,Vandaag,Ophalen of Verzenden,daan
m2220610882,Asahi PENTAX K1000,"Asahi pentax k1000 35 mm film, single-lens reflex (slr) + pentax-m 50mm lens & rokinon 28 mm ik verkoop dit omdat ik hier alle",https://images.marktplaats.com/api/v1/listing-mp-p/images/1d/1dab9d97-06f5-4160-b795-63cf4b726598?rule=ecg_mp_eps$_82.jpg,https://link.marktplaats.nl/m2220610882,52.143973768693,6.1937105491458,150.0,Ophalen of Verzenden,Vandaag,Ophalen of Verzenden,Luca
m2220393510,Yashica fotocamera,"Yashinon 1:2.8 F=4.5C m flitslicht van afga isi (geen lampjes) is gebruikt, lijkt allemaal te werken.",https://images.marktplaats.com/api/v1/listing-mp-p/images/03/03e284ec-73c0-430b-81b9-90f3f4a77133?rule=ecg_mp_eps$_82.jpg,https://link.marktplaats.nl/m2220393510,51.952229572854,5.2337720305223,0.0,Ophalen of Verzenden,Vandaag,Ophalen of Verzenden,sonny
m2220588987,Yashica Me1     Lomografie!,Werkend inclusief batterijen,https://images.marktplaats.com/api/v1/listing-mp-p/images/fa/fa7a2f8c-745b-4f9e-a93b-687594400cc7?rule=ecg_mp_eps$_82.jpg,https://link.marktplaats.nl/m2220588987,52.666088705599,4.7536376236182,0.0,Ophalen of Verzenden,Vandaag,Ophalen of Verzenden,R Brink
m2220563853,Analoge camera YASHICA FX-2 met extra lens YASHICA 135 mm,In goede conditie. Alles samen: ziet u laatste foto.,https://images.marktplaats.com/api/v1/listing-mp-p/images/2b/2bcbfa1f-5472-4e6f-a8a7-c7835e263fb6?rule=ecg_mp_eps$_82.jpg,https://link.marktplaats.nl/m2220563853,50.954692521725,5.8500899231713,0.0,Ophalen of Verzenden,Vandaag,Ophalen of Verzenden,Jean
m2220419894,Bronica S2a complete set in koffer,Een werkelijke schitterende complete set in koffer foto's spreken voor zich... Alles in zeer mooie staat ! Svp serieuze biedin,https://images.marktplaats.com/api/v1/listing-mp-p/images/ab/abecc2af-7c2c-428d-abfc-7265a0318e98?rule=ecg_mp_eps$_82.jpg,https://link.marktplaats.nl/m2220419894,52.048550742599,5.6617466897541,0.0,Ophalen of Verzenden,Vandaag,Ophalen of Verzenden,Bert
m2206010247,Pentax 67 body,Pentax 67 body recent volledig nagekeken en onderhouden door aca (amsterdam camera repairs) zie bijgevoegde bon. Inclusief viewfin,https://images.marktplaats.com/api/v1/listing-mp-p/images/ef/ef99059e-9dda-4cdb-9b27-7900208f18f6?rule=ecg_mp_eps$_82.jpg,https://link.marktplaats.nl/m2206010247,51.94343498241,4.4699716248056,800.0,Ophalen,Vandaag,Ophalen,Marlike
m2220343886,Pentax espio 738S analoge fotografie,"Af te halen in bellingwolde, verzending in overleg.",https://images.marktplaats.com/api/v1/listing-mp-p/images/57/5772ece2-faea-419f-a1a2-82be6f34d3e8?rule=ecg_mp_eps$_82.jpg,https://link.marktplaats.nl/m2220343886,53.118571887362,7.1665087626848,50.0,Verzenden,Vandaag,Verzenden,SGMA
m2220571995,Asahi Pentax ME,"Asahi pentax  met zoomlens panagor auto zoom f35-100mm  1:3.5 Netto camera, werkt goed",https://images.marktplaats.com/api/v1/listing-mp-p/images/cc/ccc0872a-3dc5-422e-a0b4-8edc55f34863?rule=ecg_mp_eps$_82.jpg,https://link.marktplaats.nl/m2220571995,53.264495984696,5.7601368223369,0.0,Ophalen,Vandaag,Ophalen,Klaas Span
m2220501014,Pentax en Minolta camera collectie,"Collectie analoge fotocamera's (zoldervondst). Van mijn grootouders geweest, lange tijd op de zolder bewaard. Werking van de c",https://images.marktplaats.com/api/v1/listing-mp-p/images/2e/2efdb77d-1be9-41c2-9bba-fdf649423e69?rule=ecg_mp_eps$_82.jpg,https://link.marktplaats.nl/m2220501014,52.365511876671,4.8879166058756,80.0,Ophalen of Verzenden,Vandaag,Ophalen of Verzenden,tomatosoup
m2220391975,Pentax MG Diverse Pentax lenzen,"Update de pentax mg is verkocht  in uitmuntende staat,  pentax mg, in foedraal pentax 50mm 1:2 pentax 40-80mm 1.2.8-4 Pentax 35mm ",https://images.marktplaats.com/api/v1/listing-mp-p/images/03/03b83ecf-170a-4a6d-bdcb-ab811eef5928?rule=ecg_mp_eps$_82.jpg,https://link.marktplaats.nl/m2220391975,51.95240970375,4.4677654776388,0.0,Verzenden,Vandaag,Verzenden,schouten/siebel
m2220600152,Pentax Espio 115 met zoomlens 38-115 mm.,Te koop pentax espio 115 met zoomlens 38-115 mm. Camera is in nieuwe staat met tasje en nieuwe batterij bieden,https://images.marktplaats.com/api/v1/listing-mp-p/images/b1/b1f81a87-65ce-4712-886f-77c055bf5f45?rule=ecg_mp_eps$_82.jpg,https://link.marktplaats.nl/m2220600152,50.892491807709,5.9746201675237,0.0,Ophalen,Vandaag,Ophalen,Parkstad
m2220497348,Pentax 110 opwinder,Opwinder voor pentax 110 camera. Zo goed als nieuw. Bieden vanaf €20.00,https://images.marktplaats.com/api/v1/listing-mp-p/images/a7/a7af62c6-9493-4cb1-a596-f816da2ee638?rule=ecg_mp_eps$_82.jpg,https://link.marktplaats.nl/m2220497348,52.074252302088,4.3548794526572,0.0,Ophalen,Vandaag,Ophalen,Marc
m2220490674,20 analoge fotocamera’s met o.a. Pentax en Minolta,"Collectie analoge fotocamera's (zoldervondst). Van mijn grootouders geweest, lange tijd op de zolder bewaard. Werking van de c",https://images.marktplaats.com/api/v1/listing-mp-p/images/25/255f86b3-0fd9-43ee-afc2-0b4fca356bbb?rule=ecg_mp_eps$_82.jpg,https://link.marktplaats.nl/m2220490674,52.365511876671,4.8879166058756,100.0,Ophalen of Verzenden,Vandaag,Ophalen of Verzenden,tomatosoup
m2220353812,Pentax 105-R,In mooie en werkende staat. Exclusief oplaadkabeltje maar in beschermhoes.,https://images.marktplaats.com/api/v1/listing-mp-p/images/67/67b50312-d861-4578-a62c-8bf69fba3486?rule=ecg_mp_eps$_82.jpg,https://link.marktplaats.nl/m2220353812,52.433348872589,4.8290686517207,15.0,Ophalen,Vandaag,Ophalen,Andre
m2220405052,Pentax PC35AF in doos,Pentax pc35af in doos met boekjes. Batterijklepje gaat wat lastig maar werkt wel. Zie ook mijn andere fotografie advertenties,https://images.marktplaats.com/api/v1/listing-mp-p/images/6d/6d5188ad-9282-4f73-b778-aaeb32efa56c?rule=ecg_mp_eps$_82.jpg,https://link.marktplaats.nl/m2220405052,52.485773596993,4.6482809782774,0.0,Ophalen of Verzenden,Vandaag,Ophalen of Verzenden,Thomas
m2220280412,Pentax analoge camera P30,Pentax analoge camera p30,https://images.marktplaats.com/api/v1/listing-mp-p/images/21/21990968-73ab-4d5e-8d69-dfddbdff6cd2?rule=ecg_mp_eps$_82.jpg,https://link.marktplaats.nl/m2220280412,52.553756269075,4.6624135159794,0.0,Ophalen of Verzenden,Vandaag,Ophalen of Verzenden,jane
m2220374650,Pentax P30 spiegel reflex camera incl 28-80 zoom lens,Pentax p30 spiegel reflex camera zoom lens 28-80 schouderband alle andere items die op de foto staan,https://images.marktplaats.com/api/v1/listing-mp-p/images/fd/fd84d23d-09ff-4f8c-945e-b21f843c329e?rule=ecg_mp_eps$_82.jpg,https://link.marktplaats.nl/m2220374650,51.677166175072,5.0428842346086,130.0,Ophalen,Vandaag,Ophalen,Noorlander
m2220506155,Pentax P30 + Takumar A zoom 28-80mm f/3.5-4.5,"Vintage pentax p30 35 mm film camera + takumar a zoom 28-80mm f/3.5-4.5 Total condition; pre-owned, vintage appearance; good condi",https://images.marktplaats.com/api/v1/listing-mp-p/images/f6/f6b098b9-1212-440f-b9e4-89463727c983?rule=ecg_mp_eps$_82.jpg,https://link.marktplaats.nl/m2220506155,52.365511876671,4.8879166058756,30.0,Ophalen of Verzenden,Vandaag,Ophalen of Verzenden,tomatosoup
m2220386184,Pentax analoge spiegelreflex camera met diverse lenzen,Lange tijd niet meer gebruikt en daarom te koop t.e.a.b. Camera inclusief diverse lenzen en draagtas.,https://images.marktplaats.com/api/v1/listing-mp-p/images/b6/b64d28c0-cdcd-403c-870e-1f267a490319?rule=ecg_mp_eps$_82.jpg,https://link.marktplaats.nl/m2220386184,51.950187638636,4.5933125561908,0.0,Ophalen,Vandaag,Ophalen,andré
m2220472188,Pentax Zoom 105 super analoge camera met veel functies,Leuke goed gebruikte pentax zoom 105 super analoge point and shoot fotocamera voor standaard 35mm filmrolletjes. Camera heeft erg ,https://images.marktplaats.com/api/v1/listing-mp-p/images/92/92033d2c-c47a-4a12-bcc0-3ca5c8e59c82?rule=ecg_mp_eps$_82.jpg,https://link.marktplaats.nl/m2220472188,51.828942084705,5.3039988710488,27.5,Ophalen of Verzenden,Vandaag,Ophalen of Verzenden,MLC
m2220450781,Asahi Pentax Spotmatic F met SMC TAKUMAR 1:1.8/55,Dit is een van de laatste roemruchte camera's uit het tijdperk dat asahi optical camera's met schroefdraadvatting maakte. ,https://images.marktplaats.com/api/v1/listing-mp-p/images/2a/2a7add73-f5da-4480-8335-4024f2db13f1?rule=ecg_mp_eps$_82.jpg,https://link.marktplaats.nl/m2220450781,52.128955921328,5.0325539804807,0.0,Ophalen of Verzenden,Vandaag,Ophalen of Verzenden,Gerjan
m2219709732,Pentax ESPIO 160 38-160mm zoom camera met flits - nieuwstaat,Pentax espio 160 pentax espio 160 analoge zoom camera met automatische flitser. Zoomlens 38mm - 160mm. Autofocus. In zeer goede st,https://images.marktplaats.com/api/v1/listing-mp-p/images/7e/7e789a0f-7f73-4182-b541-b2828b289d16?rule=ecg_mp_eps$_82.jpg,https://link.marktplaats.nl/m2219709732,50.842121565072,5.7080549378755,75.0,Ophalen of Verzenden,Vandaag,Ophalen of Verzenden,AV Media
m2220582606,Pentax Spotmatic SPII (zwart) + Takumar SMC 55mm F/1.8,"Pentax spotmatic spii (zwart), made in japan. - Zeldzaam mooie spotmatic spii in zwarte uitvoering! - De camera heeft recent een o",https://images.marktplaats.com/api/v1/listing-mp-p/images/9f/9fb8f053-353f-4335-8eb8-f8fd5e7aeec7?rule=ecg_mp_eps$_82.jpg,https://link.marktplaats.nl/m2220582606,52.994025036629,6.5566984863003,269.0,Verzenden,Vandaag,Verzenden,Chris
m2219066184,PENTAX Z-10 + Pentax 35-80mm & Sigma DL 70-300mm zoomlens,"Een leuke en compacte, 35mm film, fotocamera set. In prima staat. Met deze lenzen een zeer ruim bereik van 35mm groothoek tot en m",https://images.marktplaats.com/api/v1/listing-mp-p/images/52/5298cb71-ef26-4648-9351-0a8c86a91ff8?rule=ecg_mp_eps$_82.jpg,https://link.marktplaats.nl/m2219066184,52.522516548429,5.4907859470131,0.0,Ophalen of Verzenden,Vandaag,Ophalen of Verzenden,EdC
