item,title,description,img_url,product_url,latitude,longitude,price,delivery,dates,extended_attributes,seller_names
m2206010247,Pentax 67 body,Pentax 67 body recent volledig nagekeken en onderhouden door aca (amsterdam camera repairs) zie bijgevoegde bon. Inclusief viewfin,https://images.marktplaats.com/api/v1/listing-mp-p/images/ef/ef99059e-9dda-4cdb-9b27-7900208f18f6?rule=ecg_mp_eps$_82.jpg,https://link.marktplaats.nl/m2206010247,51.94343498241,4.4699716248056,800.0,Ophalen,Vandaag,Ophalen,Marlike
m2220343886,Pentax espio 738S analoge fotografie,"Af te halen in bellingwolde, verzending in overleg.",https://images.marktplaats.com/api/v1/listing-mp-p/images/57/5772ece2-faea-419f-a1a2-82be6f34d3e8?rule=ecg_mp_eps$_82.jpg,https://link.marktplaats.nl/m2220343886,53.118571887362,7.1665087626848,50.0,Verzenden,Vandaag,Verzenden,SGMA
m2220571995,Asahi Pentax ME,"Asahi pentax  met zoomlens panagor auto zoom f35-100mm  1:3.5 Netto camera, werkt goed",https://images.marktplaats.com/api/v1/listing-mp-p/images/cc/ccc0872a-3dc5-422e-a0b4-8edc55f34863?rule=ecg_mp_eps$_82.jpg,https://link.marktplaats.nl/m2220571995,53.264495984696,5.7601368223369,0.0,Ophalen,Vandaag,Ophalen,Klaas Span
m2220501014,Pentax en Minolta camera collectie,"Collectie analoge fotocamera's (zoldervondst). Van mijn grootouders geweest, lange tijd op de zolder bewaard. Werking van de c",https://images.marktplaats.com/api/v1/listing-mp-p/images/2e/2efdb77d-1be9-41c2-9bba-fdf649423e69?rule=ecg_mp_eps$_82.jpg,https://link.marktplaats.nl/m2220501014,52.365511876671,4.8879166058756,80.0,Ophalen of Verzenden,Vandaag,Ophalen of Verzenden,tomatosoup
m2220391975,Pentax MG Diverse Pentax lenzen,"Update de pentax mg is verkocht  in uitmuntende staat,  pentax mg, in foedraal pentax 50mm 1:2 pentax 40-80mm 1.2.8-4 Pentax 35mm ",https://images.marktplaats.com/api/v1/listing-mp-p/images/03/03b83ecf-170a-4a6d-bdcb-ab811eef5928?rule=ecg_mp_eps$_82.jpg,https://link.marktplaats.nl/m2220391975,51.95240970375,4.4677654776388,0.0,Verzenden,Vandaag,Verzenden,schouten/siebel
m2220600152,Pentax Espio 115 met zoomlens 38-115 mm.,Te koop pentax espio 115 met zoomlens 38-115 mm. Camera is in nieuwe staat met tasje en nieuwe batterij bieden,https://images.marktplaats.com/api/v1/listing-mp-p/images/b1/b1f81a87-65ce-4712-886f-77c055bf5f45?rule=ecg_mp_eps$_82.jpg,https://link.marktplaats.nl/m2220600152,50.892491807709,5.9746201675237,0.0,Ophalen,Vandaag,Ophalen,Parkstad
m2220497348,Pentax 110 opwinder,Opwinder voor pentax 110 camera. Zo goed als nieuw. Bieden vanaf €20.00,https://images.marktplaats.com/api/v1/listing-mp-p/images/a7/a7af62c6-9493-4cb1-a596-f816da2ee638?rule=ecg_mp_eps$_82.jpg,https://link.marktplaats.nl/m2220497348,52.074252302088,4.3548794526572,0.0,Ophalen,Vandaag,Ophalen,Marc
m2220490674,20 analoge fotocamera’s met o.a. Pentax en Minolta,"Collectie analoge fotocamera's (zoldervondst). Van mijn grootouders geweest, lange tijd op de zolder bewaard. Werking van de c",https://images.marktplaats.com/api/v1/listing-mp-p/images/25/255f86b3-0fd9-43ee-afc2-0b4fca356bbb?rule=ecg_mp_eps$_82.jpg,https://link.marktplaats.nl/m2220490674,52.365511876671,4.8879166058756,100.0,Ophalen of Verzenden,Vandaag,Ophalen of Verzenden,tomatosoup
m2220353812,Pentax 105-R,In mooie en werkende staat. Exclusief oplaadkabeltje maar in beschermhoes.,https://images.marktplaats.com/api/v1/listing-mp-p/images/67/67b50312-d861-4578-a62c-8bf69fba3486?rule=ecg_mp_eps$_82.jpg,https://link.marktplaats.nl/m2220353812,52.433348872589,4.8290686517207,15.0,Ophalen,Vandaag,Ophalen,Andre
m2220405052,Pentax PC35AF in doos,Pentax pc35af in doos met boekjes. Batterijklepje gaat wat lastig maar werkt wel. Zie ook mijn andere fotografie advertenties,https://images.marktplaats.com/api/v1/listing-mp-p/images/6d/6d5188ad-9282-4f73-b778-aaeb32efa56c?rule=ecg_mp_eps$_82.jpg,https://link.marktplaats.nl/m2220405052,52.485773596993,4.6482809782774,0.0,Ophalen of Verzenden,Vandaag,Ophalen of Verzenden,Thomas
m2220280412,Pentax analoge camera P30,Pentax analoge camera p30,https://images.marktplaats.com/api/v1/listing-mp-p/images/21/21990968-73ab-4d5e-8d69-dfddbdff6cd2?rule=ecg_mp_eps$_82.jpg,https://link.marktplaats.nl/m2220280412,52.553756269075,4.6624135159794,0.0,Ophalen of Verzenden,Vandaag,Ophalen of Verzenden,jane
m2220374650,Pentax P30 spiegel reflex camera incl 28-80 zoom lens,Pentax p30 spiegel reflex camera zoom lens 28-80 schouderband alle andere items die op de foto staan,https://images.marktplaats.com/api/v1/listing-mp-p/images/fd/fd84d23d-09ff-4f8c-945e-b21f843c329e?rule=ecg_mp_eps$_82.jpg,https://link.marktplaats.nl/m2220374650,51.677166175072,5.0428842346086,130.0,Ophalen,Vandaag,Ophalen,Noorlander
m2220506155,Pentax P30 + Takumar A zoom 28-80mm f/3.5-4.5,"Vintage pentax p30 35 mm film camera + takumar a zoom 28-80mm f/3.5-4.5 Total condition; pre-owned, vintage appearance; good condi",https://images.marktplaats.com/api/v1/listing-mp-p/images/f6/f6b098b9-1212-440f-b9e4-89463727c983?rule=ecg_mp_eps$_82.jpg,https://link.marktplaats.nl/m2220506155,52.365511876671,4.8879166058756,30.0,Ophalen of Verzenden,Vandaag,Ophalen of Verzenden,tomatosoup
m2220386184,Pentax analoge spiegelreflex camera met diverse lenzen,Lange tijd niet meer gebruikt en daarom te koop t.e.a.b. Camera inclusief diverse lenzen en draagtas.,https://images.marktplaats.com/api/v1/listing-mp-p/images/b6/b64d28c0-cdcd-403c-870e-1f267a490319?rule=ecg_mp_eps$_82.jpg,https://link.marktplaats.nl/m2220386184,51.950187638636,4.5933125561908,0.0,Ophalen,Vandaag,Ophalen,andré
m2220472188,Pentax Zoom 105 super analoge camera met veel functies,Leuke goed gebruikte pentax zoom 105 super analoge point and shoot fotocamera voor standaard 35mm filmrolletjes. Camera heeft erg ,https://images.marktplaats.com/api/v1/listing-mp-p/images/92/92033d2c-c47a-4a12-bcc0-3ca5c8e59c82?rule=ecg_mp_eps$_82.jpg,https://link.marktplaats.nl/m2220472188,51.828942084705,5.3039988710488,27.5,Ophalen of Verzenden,Vandaag,Ophalen of Verzenden,MLC
m2220450781,Asahi Pentax Spotmatic F met SMC TAKUMAR 1:1.8/55,Dit is een van de laatste roemruchte camera's uit het tijdperk dat asahi optical camera's met schroefdraadvatting maakte. ,https://images.marktplaats.com/api/v1/listing-mp-p/images/2a/2a7add73-f5da-4480-8335-4024f2db13f1?rule=ecg_mp_eps$_82.jpg,https://link.marktplaats.nl/m2220450781,52.128955921328,5.0325539804807,0.0,Ophalen of Verzenden,Vandaag,Ophalen of Verzenden,Gerjan
m2219709732,Pentax ESPIO 160 38-160mm zoom camera met flits - nieuwstaat,Pentax espio 160 pentax espio 160 analoge zoom camera met automatische flitser. Zoomlens 38mm - 160mm. Autofocus. In zeer goede st,https://images.marktplaats.com/api/v1/listing-mp-p/images/7e/7e789a0f-7f73-4182-b541-b2828b289d16?rule=ecg_mp_eps$_82.jpg,https://link.marktplaats.nl/m2219709732,50.842121565072,5.7080549378755,75.0,Ophalen of Verzenden,Vandaag,Ophalen of Verzenden,AV Media
m2220582606,Pentax Spotmatic SPII (zwart) + Takumar SMC 55mm F/1.8,"Pentax spotmatic spii (zwart), made in japan. - Zeldzaam mooie spotmatic spii in zwarte uitvoering! - De camera heeft recent een o",https://images.marktplaats.com/api/v1/listing-mp-p/images/9f/9fb8f053-353f-4335-8eb8-f8fd5e7aeec7?rule=ecg_mp_eps$_82.jpg,https://link.marktplaats.nl/m2220582606,52.994025036629,6.5566984863003,269.0,Verzenden,Vandaag,Verzenden,Chris
m2219066184,PENTAX Z-10 + Pentax 35-80mm & Sigma DL 70-300mm zoomlens,"Een leuke en compacte, 35mm film, fotocamera set. In prima staat. Met deze lenzen een zeer ruim bereik van 35mm groothoek tot en m",https://images.marktplaats.com/api/v1/listing-mp-p/images/52/5298cb71-ef26-4648-9351-0a8c86a91ff8?rule=ecg_mp_eps$_82.jpg,https://link.marktplaats.nl/m2219066184,52.522516548429,5.4907859470131,0.0,Ophalen of Verzenden,Vandaag,Ophalen of Verzenden,EdC
